{"version": 0.6, "generator": "Overpass API 0.7.62.8 e802775f", "osm3s": {"timestamp_osm_base": "2025-12-20T21:08:34Z", "copyright": "The data included in this document is from www.openstreetmap.org. The data is made available under ODbL."}, "elements": [{"type": "node", "id": 25307015, "lat": 51.4923919, "lon": -0.1395984}, {"type": "node", "id": 25379239, "lat": 51.5032636, "lon": -0.1117802}, {"type": "node", "id": 25472869, "lat": 51.5138409, "lon": -0.1483482}, {"type": "node", "id": 25475452, "lat": 51.5246806, "lon": -0.1241095}, {"type": "node", "id": 25475453, "lat": 51.5247273, "lon": -0.12389}, {"type": "node", "id": 25497834, "lat": 51.5242593, "lon": -0.1159899}, {"type": "node", "id": 25544124, "lat": 51.5111215, "lon": -0.1251645, "tags": {"addr:city": "London", "addr:housenumber": "22-25", "addr:postcode": "WC2E 9EQ", "addr:street": "Bedford Street", "brand": "Tesco Express", "brand:wikidata": "Q98456772", "check_date": "2022-06-27", "fhrs:confidence_management": "10", "fhrs:hygiene": "5", "fhrs:id": "428021", "fhrs:local_authority_id": "01103/0022/0/000", "fhrs:rating": "2", "fhrs:structural": "15", "name": "Tesco Express", "name:fa": "\u062a\u0633\u06a9\u0648 \u0645\u062a\u0631\u0648", "name:ja": "\u30c6\u30b9\u30b3\u30fb\u30e1\u30c8\u30ed", "payment:american_express": "yes", "shop": "convenience", "source:postcode": "FSA Food Hygiene Ratings Database", "website": "https://www.tesco.com/store-locator/london/22-25-bedford-st", "wheelchair": "yes"}}, {"type": "node", "id": 25703228, "lat": 51.5190046, "lon": -0.1347994}, {"type": "node", "id": 26659113, "lat": 51.5175867, "lon": -0.1087596, "tags": {"addr:city": "London", "addr:housenumber": "60", "addr:postcode": "EC4A 1AA", "addr:street": "Fetter Lane", "brand": "Sainsbury's Local", "brand:wikidata": "Q13218434", "brand:wikipedia": "en:Sainsbury's Local", "check_date": "2025-08-06", "fhrs:id": "294529", "name": "Sainsbury's Local", "opening_hours": "Mo-Fr 06:00-23:00, Sa 07:00-23:00, Su 09:00-23:00", "operator": "Sainsbury's", "shop": "convenience", "website": "https://stores.sainsburys.co.uk/4036/fetter-lane-local", "wheelchair": "yes"}}, {"type": "node", "id": 26699553, "lat": 51.5145576, "lon": -0.1311276}, {"type": "node", "id": 26817795, "lat": 51.5228051, "lon": -0.1587223, "tags": {"addr:city": "London", "addr:housenumber": "11-15", "addr:postcode": "NW1 6AE", "addr:street": "Melcombe Street", "alt_name": "Tesco Marylebone Melcombe Street Express", "brand": "Tesco Express", "brand:wikidata": "Q98456772", "brand:wikipedia": "en:Tesco", "check_date": "2025-11-08", "contact:website": "https://www.tesco.com/store-locator/london/11-15-melcombe-st", "fhrs:id": "413195", "name": "Tesco Express", "shop": "convenience", "source:addr": "FSA Food Hygiene Ratings Database", "source:postcode": "FSA Food Hygiene Ratings Database", "wheelchair": "limited"}}, {"type": "node", "id": 26845554, "lat": 51.5140425, "lon": -0.1342915}, {"type": "node", "id": 26866989, "lat": 51.5148695, "lon": -0.137356}, {"type": "node", "id": 32879831, "lat": 51.4825317, "lon": -0.1451085}, {"type": "node", "id": 32879832, "lat": 51.4824318, "lon": -0.1451442}, {"type": "node", "id": 32879833, "lat": 51.4824815, "lon": -0.1455049}, {"type": "node", "id": 32879834, "lat": 51.4814883, "lon": -0.1458606}, {"type": "node", "id": 32879835, "lat": 51.4813932, "lon": -0.1455109}, {"type": "node", "id": 32879836, "lat": 51.4812521, "lon": -0.145561}, {"type": "node", "id": 32879837, "lat": 51.4810922, "lon": -0.1436686}, {"type": "node", "id": 32879838, "lat": 51.4822705, "lon": -0.1432431}, {"type": "node", "id": 32879839, "lat": 51.4824962, "lon": -0.1448604}, {"type": "node", "id": 33712083, "lat": 51.5019085, "lon": -0.1594394}, {"type": "node", "id": 37860707, "lat": 51.491685, "lon": -0.1592916}, {"type": "node", "id": 37861389, "lat": 51.4914989, "lon": -0.158752}, {"type": "node", "id": 37861390, "lat": 51.491684, "lon": -0.1583584}, {"type": "node", "id": 37861393, "lat": 51.4914013, "lon": -0.1586362}, {"type": "node", "id": 37883503, "lat": 51.4882905, "lon": -0.1645341, "tags": {"amenity": "parking_entrance"}}, {"type": "node", "id": 50445260, "lat": 51.524602, "lon": -0.0720814}, {"type": "node", "id": 60661040, "lat": 51.5233233, "lon": -0.1244579, "tags": {"addr:city": "London", "addr:housenumber": "40", "addr:postcode": "WC1N 1BY", "addr:street": "Bernard Street", "brand": "Tesco Express", "brand:wikidata": "Q98456772", "brand:wikipedia": "en:Tesco", "check_date": "2024-11-05", "contact:website": "https://www.tesco.com/store-locator/london/40-bernard-st", "fhrs:id": "425086", "name": "Tesco Express", "shop": "convenience"}}, {"type": "node", "id": 64742650, "lat": 51.5202219, "lon": -0.0977916}, {"type": "node", "id": 66746795, "lat": 51.51735, "lon": -0.0833928}, {"type": "node", "id": 104275494, "lat": 51.4851174, "lon": -0.0705968}, {"type": "node", "id": 128330377, "lat": 51.4912985, "lon": -0.1391678}, {"type": "node", "id": 130118290, "lat": 51.525999, "lon": -0.1090656}, {"type": "node", "id": 166810017, "lat": 51.5205366, "lon": -0.0745113}, {"type": "node", "id": 166847832, "lat": 51.5200575, "lon": -0.0745788}, {"type": "node", "id": 166847834, "lat": 51.5200984, "lon": -0.0758034}, {"type": "node", "id": 169373136, "lat": 51.4991055, "lon": -0.1385776, "tags": {"addr:housenumber": "35", "addr:street": "Buckingham Gate", "name": "Prime Dry Cleaners", "shop": "dry_cleaning"}}, {"type": "node", "id": 247956786, "lat": 51.5064173, "lon": -0.0892636, "tags": {"addr:city": "London", "addr:housename": "Southwark Cathedral", "addr:postcode": "SE1 9DA", "addr:street": "Montague Close", "amenity": "bakery", "branch": "at The Southwark Cathedral Cafe", "brand": "Bread Ahead", "brand:wikidata": "Q110984949", "brand:wikipedia": "en:Bread Ahead", "cuisine": "coffee_shop;bakery", "fhrs:id": "363395", "name": "Bread Ahead", "old_name": "The Refectory", "outdoor_seating": "yes", "phone": "+44 20 7403 5444", "shop": "bakery", "source": "https://www.breadahead.com/", "wheelchair": "yes"}}, {"type": "node", "id": 247956793, "lat": 51.506204, "lon": -0.0877234, "tags": {"addr:city": "London", "addr:housenumber": "6", "addr:postcode": "SE1 2SX", "addr:street": "Tooley Street", "brand": "Evans Cycles", "brand:wikidata": "Q5415901", "brand:wikipedia": "en:Evans Cycles", "level": "0", "name": "Evans Cycles", "opening_hours": "Mo-Fr 08:00-20:00; Sa 09:30-18:00; Su 11:00-17:00", "service:bicycle:pump": "yes", "service:bicycle:repair": "no", "shop": "bicycle", "website": "https://www.evanscycles.com/", "wheelchair": "limited"}}, {"type": "node", "id": 247957484, "lat": 51.5061488, "lon": -0.08721, "tags": {"addr:city": "London", "addr:housenumber": "3-4", "addr:postcode": "SE1 9DA", "addr:street": "London Bridge Walk", "level": "1", "name": "On Your Bike", "note": "On y bike occupies 2 units, including the former carphone warehouse (most recently tagged as vacant)", "opening_hours": "Mo-Fr 07:30-19:30; Sa 10:00-18:00", "phone": "+44 20 7378 6669", "repair": "yes", "service:bicycle:rental": "yes", "service:bicycle:repair": "yes", "shop": "bicycle", "website": "https://www.onyourbike.com/"}}, {"type": "node", "id": 247957874, "lat": 51.5084239, "lon": -0.1078879, "tags": {"addr:city": "London", "addr:housename": "OXO Tower", "addr:postcode": "SE1 9PH", "addr:street": "The Queen's Walk", "level": "0", "name": "Brand Academy", "shop": "gift"}}, {"type": "node", "id": 248443157, "lat": 51.5287243, "lon": -0.0837452, "tags": {"addr:city": "London", "addr:housenumber": "51-53", "addr:postcode": "N1 6BU", "addr:street": "Pitfield Street", "check_date": "2023-08-01", "dog": "yes", "fhrs:id": "469798", "name": "Shopping Tree Hoxton", "payment:credit_cards": "yes", "payment:debit_cards": "yes", "shop": "convenience", "wheelchair": "yes"}}, {"type": "node", "id": 248443159, "lat": 51.5272456, "lon": -0.0834652, "tags": {"addr:city": "London", "addr:housenumber": "18b", "addr:postcode": "N1 6EY", "addr:street": "Pitfield Street", "fhrs:id": "469591", "name": "VB Stores", "shop": "convenience"}}, {"type": "node", "id": 248444186, "lat": 51.5256052, "lon": -0.0905348, "tags": {"addr:city": "London", "addr:housenumber": "185", "addr:postcode": "EC1V 9NP", "addr:street": "Old Street", "brand": "Co-op Food", "brand:wikidata": "Q3277439", "brand:wikipedia": "en:Co-op Food", "check_date": "2025-03-10", "name": "Co-op Food", "opening_hours": "Mo-Sa 06:00-24:00, Su 11:00-17:00", "operator": "The Co-operative Group", "operator:wikidata": "Q117202", "shop": "supermarket", "website": "https://www.coop.co.uk/store-finder/EC1V-9NP/185-old-street", "wheelchair": "yes"}}, {"type": "node", "id": 251952271, "lat": 51.5080151, "lon": -0.110028}, {"type": "node", "id": 254384029, "lat": 51.528965, "lon": -0.0776711, "tags": {"amenity": "atm", "brand": "Cashzone", "brand:wikidata": "Q110738461", "charge": "1.55 GBP", "check_date": "2025-06-09", "fee": "yes", "network": "Allpoint", "network:wikidata": "Q4733264", "operator": "Cashzone", "wheelchair": "yes"}}, {"type": "node", "id": 255396265, "lat": 51.5138392, "lon": -0.0929681}, {"type": "node", "id": 255747919, "lat": 51.514829, "lon": -0.1171245}, {"type": "node", "id": 255747920, "lat": 51.514735, "lon": -0.1171958}, {"type": "node", "id": 255747922, "lat": 51.5146708, "lon": -0.1169953}, {"type": "node", "id": 255747924, "lat": 51.5147698, "lon": -0.1169269}, {"type": "node", "id": 255747926, "lat": 51.5146993, "lon": -0.1171183}, {"type": "node", "id": 255747933, "lat": 51.5148468, "lon": -0.1172092}, {"type": "node", "id": 255747935, "lat": 51.5147555, "lon": -0.1172614}, {"type": "node", "id": 258015861, "lat": 51.527726, "lon": -0.1023445, "tags": {"shop": "books", "wheelchair": "yes"}}, {"type": "node", "id": 260090482, "lat": 51.5144122, "lon": -0.1040429}, {"type": "node", "id": 264515623, "lat": 51.5173718, "lon": -0.1206414, "tags": {"addr:city": "London", "addr:housenumber": "129-133", "addr:postcode": "WC2B 6NH", "addr:street": "Kingsway", "air_conditioning": "yes", "alt_name": "Sainsbury's Local Holborn", "brand": "Sainsbury's Local", "brand:wikidata": "Q13218434", "brand:wikipedia": "en:Sainsbury's Local", "contact:phone": "+44 20 7242 6320", "fhrs:id": "807690", "fhrs:local_authority_id": "36853", "level": "0", "name": "Sainsbury's Local", "opening_hours": "Mo-Sa 06:00-24:00, Su 01:00-19:00", "payment:american_express": "yes", "payment:cash": "yes", "shop": "convenience", "wheelchair": "yes"}}, {"type": "node", "id": 264523231, "lat": 51.5050455, "lon": -0.0829194, "tags": {"addr:city": "London", "addr:postcode": "SE1 2DA", "brand": "Marks & Spencer", "brand:short": "M&S", "brand:wikidata": "Q714491", "check_date": "2025-10-31", "check_date:opening_hours": "2025-10-31", "contact:website": "https://www.marksandspencer.com/stores/london-more-riverside-simply-food-7980", "name": "M&S Simply Food", "opening_hours": "Mo-Fr 07:00-21:00; Sa 09:00-21:00; Su 10:00-21:00", "phone": "+44 20 7357 9489", "shop": "convenience", "toilets": "no", "wheelchair": "yes"}}, {"type": "node", "id": 264523233, "lat": 51.5050408, "lon": -0.0833755, "tags": {"addr:unit": "B", "branch": "More London", "brand": "Ole & Steen", "brand:wikidata": "Q12323572", "check_date": "2025-08-15", "level": "0", "name": "Ole & Steen", "old_name": "Caff\u00e8 Nero", "payment:mastercard": "yes", "payment:visa": "yes", "shop": "bakery", "wheelchair": "yes"}}, {"type": "node", "id": 264625444, "lat": 51.5261277, "lon": -0.0843317}, {"type": "node", "id": 264803334, "lat": 51.4877121, "lon": -0.1114842, "tags": {"addr:city": "London", "addr:housenumber": "296-300", "addr:postcode": "SE11 4LD", "addr:street": "Kennington Road", "fhrs:id": "1371905", "name": "Didi & Franc", "opening_hours": "Mo off; Tu off; We-Sa 12:00-21:30; Su 11:00-16:00", "shop": "wine", "website": "https://www.instagram.com/didiandfranc"}}, {"type": "node", "id": 265254508, "lat": 51.4900199, "lon": -0.1072982, "tags": {"shop": "chemist"}}, {"type": "node", "id": 265662963, "lat": 51.4958553, "lon": -0.1420198, "tags": {"addr:city": "London", "addr:housenumber": "320", "addr:postcode": "SW1V 1AA", "addr:street": "Vauxhall Bridge Road", "branch": "Collect", "brand": "Screwfix", "brand:wikidata": "Q7439115", "brand:wikipedia": "en:Screwfix", "name": "Screwfix", "opening_hours": "Mo-Fr 07:00-20:00, Sa 07:00-18:00, Su 09:00-16:00", "shop": "doityourself", "website": "https://www.screwfix.com/stores/EC5/london-victoria"}}, {"type": "node", "id": 267432003, "lat": 51.501141, "lon": -0.125277, "tags": {"addr:city": "London", "addr:housenumber": "8-9", "addr:postcode": "SW1A 2JR", "addr:street": "Bridge Street", "brand": "Tesco Express", "brand:wikidata": "Q98456772", "brand:wikipedia": "en:Tesco", "check_date": "2024-09-04", "contact:website": "https://www.tesco.com/store-locator/london/portcullis-house", "fhrs:id": "412313", "name": "Tesco Express", "name:be": "\u0422\u044d\u0441\u043a\u0430 \u042d\u043a\u0441\u043f\u0440\u044d\u0441", "name:en": "Tesco Express", "name:fa": "\u062a\u0633\u06a9\u0648 \u0627\u06a9\u0633\u067e\u0631\u0633", "name:ru": "\u0422\u0435\u0441\u043a\u043e \u042d\u043a\u0441\u043f\u0440\u0435\u0441\u0441", "opening_hours": "Mo-Su 07:00-23:00", "payment:american_express": "yes", "shop": "convenience"}}, {"type": "node", "id": 269746286, "lat": 51.4892455, "lon": -0.0759969}, {"type": "node", "id": 269746287, "lat": 51.4890059, "lon": -0.0754704}, {"type": "node", "id": 269746288, "lat": 51.4890406, "lon": -0.0754297}, {"type": "node", "id": 269746289, "lat": 51.489018, "lon": -0.07538}, {"type": "node", "id": 269746290, "lat": 51.4891014, "lon": -0.0752813}, {"type": "node", "id": 269746291, "lat": 51.4891505, "lon": -0.0751417}, {"type": "node", "id": 269746292, "lat": 51.4885378, "lon": -0.0757704}, {"type": "node", "id": 269746293, "lat": 51.4885578, "lon": -0.0758144}, {"type": "node", "id": 269746294, "lat": 51.4883827, "lon": -0.0760198}, {"type": "node", "id": 269746295, "lat": 51.4884207, "lon": -0.0761033}, {"type": "node", "id": 269746296, "lat": 51.4883899, "lon": -0.0761394}, {"type": "node", "id": 269746297, "lat": 51.4885317, "lon": -0.0764509}, {"type": "node", "id": 269746298, "lat": 51.4884603, "lon": -0.0765346}, {"type": "node", "id": 269746299, "lat": 51.4886117, "lon": -0.0768672}, {"type": "node", "id": 269746300, "lat": 51.4888372, "lon": -0.0766026}, {"type": "node", "id": 269746301, "lat": 51.4887996, "lon": -0.0765201}, {"type": "node", "id": 269759535, "lat": 51.4878618, "lon": -0.0751505}, {"type": "node", "id": 269759538, "lat": 51.4880352, "lon": -0.0754953}, {"type": "node", "id": 269759540, "lat": 51.4884651, "lon": -0.0744679}, {"type": "node", "id": 269759541, "lat": 51.4886025, "lon": -0.0747301}, {"type": "node", "id": 269759544, "lat": 51.4887619, "lon": -0.0740647}, {"type": "node", "id": 269759546, "lat": 51.4888946, "lon": -0.0743116}, {"type": "node", "id": 269759548, "lat": 51.4889801, "lon": -0.0742038}, {"type": "node", "id": 269759550, "lat": 51.4891486, "lon": -0.0745316}, {"type": "node", "id": 269759553, "lat": 51.488728, "lon": -0.0745711}, {"type": "node", "id": 269759556, "lat": 51.4889253, "lon": -0.0749462}, {"type": "node", "id": 272078184, "lat": 51.4919582, "lon": -0.140554}, {"type": "node", "id": 272079218, "lat": 51.4912721, "lon": -0.1375414, "tags": {"brand": "Nisa Local", "brand:wikidata": "Q16999069", "name": "Nisa Local", "opening_hours": "Mo-Su 07:00-23:00", "shop": "convenience"}}, {"type": "node", "id": 272082978, "lat": 51.4925721, "lon": -0.138266, "tags": {"name": "The Optical Studio", "shop": "optician", "wheelchair": "yes"}}, {"type": "node", "id": 273217498, "lat": 51.4970512, "lon": -0.1374952}, {"type": "node", "id": 275402055, "lat": 51.4895905, "lon": -0.1347848, "tags": {"addr:city": "London", "addr:housenumber": "101", "addr:postcode": "SW1V 2QA", "addr:street": "Tachbrook Street", "fhrs:confidence_management": "10", "fhrs:hygiene": "10", "fhrs:id": "414322", "fhrs:local_authority_id": "01601/0101/0/000", "fhrs:rating": "3", "fhrs:structural": "5", "name": "Tachbrook Bakery & Patisserie", "opening_hours": "Mo-Fr 07:00-16:00; Sa 08:00-16:00", "outdoor_seating": "yes", "payment:american_express": "yes", "payment:contactless": "yes", "shop": "bakery", "source:addr": "FSA Food Hygiene Ratings Database", "source:postcode": "FSA Food Hygiene Ratings Database"}}, {"type": "node", "id": 275727982, "lat": 51.4949701, "lon": -0.1429797, "tags": {"brand": "Marks & Spencer", "brand:short": "M&S", "brand:wikidata": "Q714491", "brand:wikipedia": "en:Marks & Spencer", "check_date": "2024-07-21", "check_date:opening_hours": "2024-07-21", "contact:website": "https://www.marksandspencer.com/stores/london-victoria-east-simply-food-7579", "name": "M&S Simply Food", "opening_hours": "Mo-Sa 06:00-23:00; Su 08:00-21:00", "shop": "convenience"}}, {"type": "node", "id": 276074178, "lat": 51.497613, "lon": -0.1410069, "tags": {"addr:city": "London", "addr:housenumber": "10", "addr:postcode": "SW1E 5JE", "addr:street": "Cardinal Walk", "brand": "Marks & Spencer", "brand:short": "M&S", "brand:wikidata": "Q714491", "brand:wikipedia": "en:Marks & Spencer", "check_date": "2024-07-21", "check_date:opening_hours": "2024-07-21", "fhrs:confidence_management": "5", "fhrs:hygiene": "0", "fhrs:id": "414622", "fhrs:local_authority_id": "06/00109/COMM", "fhrs:rating": "5", "fhrs:structural": "5", "level": "0", "name": "Marks & Spencer", "opening_hours": "Mo-Fr 08:00-21:00; Sa 09:00-20:00; Su 11:00-17:00", "shop": "department_store", "source:addr": "FSA Food Hygiene Ratings Database", "source:postcode": "FSA Food Hygiene Ratings Database", "toilets": "no", "website": "https://www.marksandspencer.com/stores/london-victoria-cardinal-place-3858"}}, {"type": "node", "id": 276668644, "lat": 51.4923718, "lon": -0.1391685}, {"type": "node", "id": 277625214, "lat": 51.4879886, "lon": -0.1411929, "tags": {"name": "All Loved Up", "old_name": "Paxall's Chemist", "shop": "clothes"}}, {"type": "node", "id": 277625215, "lat": 51.4879468, "lon": -0.1412432, "tags": {"beauty": "nails", "name": "The Nail Bar", "old_name": "My Cafe", "shop": "beauty"}}, {"type": "node", "id": 280702816, "lat": 51.4991745, "lon": -0.164298}, {"type": "node", "id": 280702852, "lat": 51.4999517, "lon": -0.1629325}, {"type": "node", "id": 280702890, "lat": 51.4985589, "lon": -0.1629882, "tags": {"entrance": "yes", "ref": "1"}}, {"type": "node", "id": 280703034, "lat": 51.4985751, "lon": -0.1622205}, {"type": "node", "id": 282618049, "lat": 51.5004995, "lon": -0.0992896, "tags": {"addr:city": "London", "addr:housenumber": "136", "addr:postcode": "SE1 0DG", "addr:street": "Southwark Bridge Road", "brand": "Co-op Food", "brand:wikidata": "Q3277439", "check_date": "2024-07-15", "fhrs:id": "776614", "name": "Co-op Food", "opening_hours": "Mo-Su,PH 07:00-23:00", "operator": "The Co-operative Group", "operator:wikidata": "Q117202", "shop": "supermarket", "source:addr": "FHRS Open Data", "website": "https://www.coop.co.uk/store-finder/SE1-0DG/136-southwark-bridge-road"}}, {"type": "node", "id": 282686487, "lat": 51.5054551, "lon": -0.1173459, "tags": {"addr:city": "London", "addr:housename": "Royal Festival Hall", "addr:postcode": "SE1 8XX", "addr:unit": "Unit 12 To 13", "fixme:addr:1": "South Bank", "shop": "vacant", "source:addr": "FHRS Open Data"}}, {"type": "node", "id": 283207067, "lat": 51.499981, "lon": -0.0785352, "tags": {"addr:city": "London", "addr:housenumber": "168", "addr:postcode": "SE1 3LS", "addr:street": "Tower Bridge Road", "name": "Welcome", "opening_hours": "Mo-Su 07:00-24:00", "shop": "convenience", "website": "https://stores.welcome-stores.co.uk/london/london/168-tower-bridge.html"}}, {"type": "node", "id": 283207082, "lat": 51.4966388, "lon": -0.0810618, "tags": {"addr:city": "London", "addr:housenumber": "104-108", "addr:street": "Tower Bridge Road", "old_name": "Barclays", "shop": "vacant"}}, {"type": "node", "id": 285921198, "lat": 51.5222888, "lon": -0.0921222, "tags": {"addr:city": "London", "addr:housename": "Cherry Tree Walk Centre", "addr:postcode": "EC1Y 8NX", "addr:street": "Cherry Tree Walk", "branch": "Barbican", "brand": "Waitrose", "brand:wikidata": "Q771734", "brand:wikipedia": "en:Waitrose", "fhrs:id": "416999", "name": "Waitrose", "official_name": "Waitrose & Partners", "opening_hours": "Mo-Fr 07:00-22:00; Sa 08:00-21:00; Su 11:00-17:00", "operator": "Waitrose & Partners", "shop": "supermarket", "source": "Yahoo! and personal knowledge", "website": "https://www.waitrose.com/find-a-store/barbican", "wheelchair": "yes"}}, {"type": "node", "id": 289424999, "lat": 51.4907202, "lon": -0.0929771, "tags": {"addr:city": "London", "addr:housenumber": "86", "addr:postcode": "SE17 1ND", "addr:street": "Brandon Street", "fhrs:id": "362899", "name": "A.T. Newsagent", "shop": "newsagent", "source:addr": "FHRS Open Data"}}, {"type": "node", "id": 289425369, "lat": 51.4913483, "lon": -0.0904194, "tags": {"addr:city": "London", "addr:housenumber": "98", "addr:postcode": "SE17 1RA", "addr:street": "Rodney Road", "fhrs:id": "1067587", "name": "Tigris Supermarket", "opening_hours": "09:00 - 23:00", "shop": "convenience", "source:addr": "FHRS Open Data"}}, {"type": "node", "id": 289425459, "lat": 51.4906057, "lon": -0.0927916, "tags": {"addr:street": "Browning Street", "shop": "convenience"}}, {"type": "node", "id": 289425732, "lat": 51.4913005, "lon": -0.0901641, "tags": {"addr:housenumber": "104", "shop": "laundry"}}, {"type": "node", "id": 289426430, "lat": 51.4913252, "lon": -0.0903501, "tags": {"addr:housenumber": "100", "addr:street": "Rodney Road", "brand": "William Hill", "brand:wikidata": "Q4053147", "brand:wikipedia": "en:William Hill (bookmaker)", "name": "William Hill", "shop": "bookmaker", "website": "https://www.williamhill.com/"}}, {"type": "node", "id": 290384121, "lat": 51.4930453, "lon": -0.141049}, {"type": "node", "id": 291659106, "lat": 51.5213587, "lon": -0.1398632}, {"type": "node", "id": 291659162, "lat": 51.5212949, "lon": -0.1400171}, {"type": "node", "id": 291659227, "lat": 51.521251, "lon": -0.1397404}, {"type": "node", "id": 291953085, "lat": 51.5246403, "lon": -0.0939348, "tags": {"name": "Whitecross Street Market", "shop": "market"}}, {"type": "node", "id": 292388037, "lat": 51.4966832, "lon": -0.1306197, "tags": {"addr:city": "London", "addr:postcode": "SW1P 2BW", "addr:street": "Monck Street", "addr:unit": "2", "brand": "Tesco Express", "brand:wikidata": "Q98456772", "brand:wikipedia": "en:Tesco", "check_date": "2024-06-08", "contact:website": "https://www.tesco.com/store-locator/london/2-monck-st", "fhrs:id": "428189", "name": "Tesco Express", "opening_hours": "Mo-Sa 07:00-22:00; Su 08:00-22:00", "shop": "convenience", "source:postcode": "FSA Food Hygiene Ratings Database", "wheelchair": "yes"}}, {"type": "node", "id": 294874307, "lat": 51.511024, "lon": -0.089379}, {"type": "node", "id": 295908296, "lat": 51.513534, "lon": -0.1557483}, {"type": "node", "id": 295908298, "lat": 51.5135289, "lon": -0.1538398, "tags": {"entrance": "yes"}}, {"type": "node", "id": 295908299, "lat": 51.5137584, "lon": -0.1539126}, {"type": "node", "id": 295975600, "lat": 51.5126526, "lon": -0.0874977, "tags": {"addr:city": "London", "addr:housenumber": "14", "addr:postcode": "EC3V 9AN", "addr:street": "Lombard Street", "brand": "Sainsbury's Local", "brand:wikidata": "Q13218434", "brand:wikipedia": "en:Sainsbury's Local", "fhrs:id": "294551", "name": "Sainsbury's Local", "opening_hours": "Mo-Fr 06:00-22:00; Sa,Su 08:00-18:00", "shop": "convenience", "website": "https://stores.sainsburys.co.uk/4165/lombard-street-local", "wheelchair": "yes"}}, {"type": "node", "id": 296002309, "lat": 51.5258178, "lon": -0.1618796, "tags": {"addr:housenumber": "55", "addr:street": "Park Road", "check_date": "2025-01-07", "name": "Flower Station", "shop": "florist", "website": "https://www.flowerstation.co.uk/"}}, {"type": "node", "id": 296014936, "lat": 51.5251868, "lon": -0.1677061, "tags": {"check_date": "2025-08-05", "name": "Costless Supermarket", "shop": "supermarket"}}, {"type": "node", "id": 296610106, "lat": 51.5133665, "lon": -0.0925606, "tags": {"addr:city": "London", "addr:housenumber": "6-7", "addr:postcode": "EC4N 1SP", "addr:street": "Queen Street", "brand": "Robert Dyas", "brand:wikidata": "Q7343720", "brand:wikipedia": "en:Robert Dyas", "fhrs:id": "294176", "name": "Robert Dyas", "shop": "hardware"}}, {"type": "node", "id": 298009921, "lat": 51.5054742, "lon": -0.0977808}, {"type": "node", "id": 298915904, "lat": 51.5226682, "lon": -0.1687204, "tags": {"check_date": "2025-06-06", "name": "Blue Shop", "shop": "convenience"}}, {"type": "node", "id": 299522559, "lat": 51.5195321, "lon": -0.1689792, "tags": {"addr:city": "London", "addr:housenumber": "258", "addr:postcode": "W2 1DU", "addr:street": "Edgware Road", "air_conditioning": "yes", "brand": "Marks & Spencer", "brand:wikidata": "Q714491", "brand:wikipedia": "en:Marks & Spencer", "check_date": "2025-12-16", "check_date:opening_hours": "2024-07-21", "contact:website": "https://www.marksandspencer.com/stores/edgware-road-2927", "currency:GBP": "yes", "fhrs:id": "412767", "level": "0", "name": "Marks & Spencer", "opening_hours": "Mo-Fr 08:00-21:00; Sa 08:00-20:00; Su 12:00-18:00", "payment:mastercard": "yes", "payment:visa": "yes", "second_hand": "no", "shop": "department_store", "source": "survey", "source:addr": "FHRS Open Data", "stroller": "yes", "wheelchair": "yes"}}, {"type": "node", "id": 300500853, "lat": 51.507967, "lon": -0.143608, "tags": {"addr:city": "London", "addr:housenumber": "38", "addr:postcode": "W1J 8LT", "addr:street": "Stratton Street", "branch": "Mayfair Stratton Street", "brand": "Sainsbury's Local", "brand:wikidata": "Q13218434", "brand:wikipedia": "en:Sainsbury's Local", "fhrs:id": "414243", "name": "Sainsbury's Local", "opening_hours": "Mo-Sa 06:30-23:00; Su 08:00-23:00", "payment:american_express": "yes", "phone": "+44 330 013 7674", "shop": "convenience", "website": "https://stores.sainsburys.co.uk/5062/mayfair-stratton-street-local", "wheelchair": "yes"}}, {"type": "node", "id": 300500855, "lat": 51.5122747, "lon": -0.1448767, "tags": {"addr:city": "London", "addr:housenumber": "1-3", "addr:postcode": "W1K 4PT", "addr:street": "Grosvenor Street", "brand": "Agent Provocateur", "brand:wikidata": "Q392755", "clothes": "underwear", "name": "Agent Provocateur", "opening_hours": "Mo-Sa 10:00-19:00; Su 12:00-18:00", "phone": "+44 20 7499 5093", "shop": "clothes", "source": "passing and web", "website": "https://www.agentprovocateur.com/", "wheelchair": "limited"}}, {"type": "node", "id": 301010018, "lat": 51.4919407, "lon": -0.1381982}, {"type": "node", "id": 302012329, "lat": 51.4930035, "lon": -0.1406655}, {"type": "node", "id": 302013696, "lat": 51.5155158, "lon": -0.0765378}, {"type": "node", "id": 302013702, "lat": 51.5157796, "lon": -0.0761614}, {"type": "node", "id": 302013703, "lat": 51.5160757, "lon": -0.0766124}, {"type": "node", "id": 302013705, "lat": 51.5163581, "lon": -0.0769775}, {"type": "node", "id": 302013706, "lat": 51.5161601, "lon": -0.0765664}, {"type": "node", "id": 302013707, "lat": 51.5164278, "lon": -0.0768824}, {"type": "node", "id": 302013722, "lat": 51.5153611, "lon": -0.076511}, {"type": "node", "id": 302013738, "lat": 51.5163848, "lon": -0.0768015}, {"type": "node", "id": 302410176, "lat": 51.522563, "lon": -0.1651924, "tags": {"addr:city": "London", "addr:housenumber": "24", "addr:street": "Lisson Grove", "brand": "Tesco Express", "brand:wikidata": "Q98456772", "brand:wikipedia": "en:Tesco", "check_date": "2025-11-22", "contact:website": "https://www.tesco.com/store-locator/london/26-46-lisson-grove", "entrance": "yes", "fhrs:id": "412987", "name": "Tesco Express", "not:addr:postcode": "NW1 6UR", "shop": "convenience", "source:addr": "FSA Food Hygiene Ratings Database"}}, {"type": "node", "id": 302623763, "lat": 51.5038235, "lon": -0.1067338, "tags": {"addr:city": "London", "addr:district": "Waterloo", "addr:housename": "Benson House", "addr:housenumber": "2-3", "addr:postcode": "SE1 8DQ", "addr:street": "Hatfields", "name": "The London Bicycle Repair Shop", "opening_hours": "Mo-Th 08:00-19:00; Fr 08:00-18:00; Sa 10:00-16:00", "payment:cash": "yes", "payment:credit_cards": "yes", "phone": "+44 207 928 6898", "repair": "yes", "service:bicycle:repair": "yes", "shop": "bicycle", "website": "https://www.thelondonbicyclerepairshop.co.uk"}}, {"type": "node", "id": 304404285, "lat": 51.5220821, "lon": -0.1139278, "tags": {"addr:city": "London", "addr:housenumber": "49-53", "addr:postcode": "WC1X 8PP", "addr:street": "Gray's Inn Road", "name": "Condor Cycles", "opening_hours": "Mo-Fr 08:00-18:00; Sa 10:00-17:00", "service:bicycle:pump": "yes", "shop": "bicycle", "website": "https://www.condorcycles.com", "wheelchair": "no"}}, {"type": "node", "id": 304995040, "lat": 51.5070808, "lon": -0.1079443, "tags": {"addr:housenumber": "58", "brand": "Toni & Guy", "brand:wikidata": "Q324784", "brand:wikipedia": "en:Toni & Guy", "check_date:opening_hours": "2023-03-07", "name": "Toni & Guy", "opening_hours:signed": "no", "shop": "hairdresser", "wheelchair": "no"}}, {"type": "node", "id": 306134799, "lat": 51.5154232, "lon": -0.0841375, "tags": {"shop": "kiosk"}}, {"type": "node", "id": 306135269, "lat": 51.5165435, "lon": -0.0827701}, {"type": "node", "id": 306135753, "lat": 51.5149495, "lon": -0.0854236, "tags": {"amenity": "atm"}}, {"type": "node", "id": 306136163, "lat": 51.5149849, "lon": -0.0852355, "tags": {"wheelchair": "yes"}}, {"type": "node", "id": 306223198, "lat": 51.4933012, "lon": -0.1410328}, {"type": "node", "id": 308079346, "lat": 51.487774, "lon": -0.1421156, "tags": {"addr:city": "London", "addr:housenumber": "82", "addr:postcode": "SW1V 3EN", "addr:street": "Lupus Street", "fhrs:confidence_management": "20", "fhrs:hygiene": "15", "fhrs:id": "413415", "fhrs:local_authority_id": "01180/0107/0/000", "fhrs:rating": "1", "fhrs:structural": "10", "name": "Friends Supermarket", "shop": "convenience", "source:addr": "FSA Food Hygiene Ratings Database", "source:postcode": "FSA Food Hygiene Ratings Database"}}, {"type": "node", "id": 308837943, "lat": 51.5181462, "lon": -0.103022}, {"type": "node", "id": 309115656, "lat": 51.5180234, "lon": -0.1193874, "tags": {"addr:city": "London", "addr:housenumber": "3", "addr:postcode": "WC1V 6DW", "addr:street": "Procter Street", "name": "CycleSurgery", "shop": "bicycle"}}, {"type": "node", "id": 311877300, "lat": 51.5212872, "lon": -0.12364, "tags": {"check_date": "2025-09-10", "name": "Portlands", "shop": "convenience"}}, {"type": "node", "id": 315267235, "lat": 51.4923278, "lon": -0.1596029}, {"type": "node", "id": 315267236, "lat": 51.4919094, "lon": -0.1594084}, {"type": "node", "id": 315267239, "lat": 51.492596, "lon": -0.1583754}, {"type": "node", "id": 315267240, "lat": 51.4924449, "lon": -0.159345}, {"type": "node", "id": 317291389, "lat": 51.5196423, "lon": -0.1336008, "tags": {"addr:city": "London", "addr:housenumber": "55", "addr:postcode": "W1T 2EQ", "addr:street": "Tottenham Court Road", "brand": "Marks & Spencer", "brand:short": "M&S", "brand:wikidata": "Q714491", "brand:wikipedia": "en:Marks & Spencer", "check_date": "2024-07-21", "check_date:opening_hours": "2024-07-21", "contact:website": "https://www.marksandspencer.com/stores/tottenham-court-rd-simply-food-4750", "internet_access": "no", "name": "M&S Foodhall", "opening_hours": "Mo-Fr 07:30-21:00; Sa 08:00-21:00; Su 12:00-18:00", "payment:american_express": "yes", "shop": "supermarket", "wheelchair": "yes", "wheelchair:description": "This is not just access, this is M"}}, {"type": "node", "id": 322959324, "lat": 51.4855226, "lon": -0.0976512, "tags": {"addr:city": "London", "addr:housenumber": "34B", "addr:postcode": "SE17 3EE", "addr:street": "Sutherland Square", "name": "K.P. Corner Stores", "shop": "convenience"}}, {"type": "node", "id": 322959340, "lat": 51.4859331, "lon": -0.0944752, "tags": {"brand": "Iceland", "brand:wikidata": "Q721810", "brand:wikipedia": "en:Iceland (supermarket)", "check_date": "2025-08-30", "contact:website": "https://www.iceland.co.uk/store-finder/store?StoreID=293&StoreName=WALWORTH%20ROAD", "name": "Iceland", "opening_hours": "09:00-20:00; Su 10:00-16:00", "shop": "frozen_food", "wheelchair": "yes"}}, {"type": "node", "id": 322979601, "lat": 51.485468, "lon": -0.0937374, "tags": {"addr:city": "London", "addr:housename": "Argos", "addr:housenumber": "367-369", "addr:postcode": "SE17 2AL", "addr:street": "Walworth Road", "brand": "Screwfix", "brand:wikidata": "Q7439115", "check_date": "2025-08-30", "name": "Screwfix", "opening_hours": "Mo-Fr 09:00-20:00; Sa 09:00-18:30; Su 10:00-17:00", "shop": "doityourself"}}, {"type": "node", "id": 338463487, "lat": 51.5181778, "lon": -0.1131165}, {"type": "node", "id": 338463489, "lat": 51.5181524, "lon": -0.1124538}, {"type": "node", "id": 338505254, "lat": 51.5182388, "lon": -0.1152523, "tags": {"brand": "Moss Bros", "brand:wikidata": "Q6916538", "clothes": "men", "name": "Moss Bros", "shop": "clothes"}}, {"type": "node", "id": 338505485, "lat": 51.518785, "lon": -0.1169198}, {"type": "node", "id": 338507303, "lat": 51.5185773, "lon": -0.1191786}, {"type": "node", "id": 338507308, "lat": 51.5177887, "lon": -0.1199051, "tags": {"name": "Office Angels", "shop": "recruitment"}}, {"type": "node", "id": 338507314, "lat": 51.5180859, "lon": -0.1189801, "tags": {"name": "Fujifilm", "shop": "camera"}}, {"type": "node", "id": 338507316, "lat": 51.5175583, "lon": -0.1191529, "tags": {"addr:housenumber": "239", "addr:street": "High Holborn", "brand": "Fabrique", "brand:wikidata": "Q110533127", "name": "Fabrique", "shop": "bakery"}}, {"type": "node", "id": 338507318, "lat": 51.517496, "lon": -0.1194973, "tags": {"brand": "Waterstones", "brand:wikidata": "Q151779", "name": "Waterstones", "shop": "books", "wheelchair": "no"}}, {"type": "node", "id": 338575315, "lat": 51.5151874, "lon": -0.1128057, "tags": {"addr:city": "London", "addr:housename": "Lincoln\u2019s Inn Archway", "addr:postcode": "WC2A 2JD", "addr:street": "Carey Street", "fax": "+44 20 7430 0897", "name": "Wildy & Sons Ltd", "note": "either side of archway entrance", "opening_hours": "Mo-Fr 08:45-18:00", "phone": "+44 20 7242 5778", "shop": "books", "website": "https://www.wildy.com/"}}, {"type": "node", "id": 339155315, "lat": 51.5056101, "lon": -0.0841907, "tags": {"addr:city": "London", "addr:postcode": "SE1 2HD", "addr:street": "Counter Street", "addr:unit": "Unit 8 To 11 Hays Galleria", "brand": "Boots", "brand:wikidata": "Q6123139", "brand:wikipedia": "en:Boots (company)", "fhrs:id": "362822", "level": "0", "name": "Boots", "opening_hours": "Mo-Fr 07:30-19:00; Sa 10:00-18:00; Su 11:00-17:00", "operator": "Boots UK Limited", "payment:american_express": "yes", "phone": "+44 20 7407 4276", "shop": "chemist", "source:addr": "FHRS Open Data", "store_ref": "839", "website": "https://www.boots.com/stores/839-london-hays-galleria-se1-2hd", "wheelchair": "yes"}}, {"type": "node", "id": 341348346, "lat": 51.5167653, "lon": -0.0783733}, {"type": "node", "id": 341348365, "lat": 51.5165032, "lon": -0.0787392}, {"type": "node", "id": 343358397, "lat": 51.4849885, "lon": -0.1259845, "tags": {"addr:city": "London", "addr:housenumber": "16,22", "addr:postcode": "SW8 2JW", "addr:street": "Wandsworth Road", "air_conditioning": "yes", "brand": "Tesco Express", "brand:wikidata": "Q98456772", "brand:wikipedia": "en:Tesco", "check_date": "2023-10-13", "contact:website": "https://www.tesco.com/store-locator/london/16-22-wandsworth-rd", "name": "Tesco Express", "name:fa": "\u062a\u0633\u06a9\u0648 \u0627\u06a9\u0633\u067e\u0631\u0633", "opening_hours": "Mo-Su 07:00-23:00", "shop": "convenience", "wheelchair": "yes"}}, {"type": "node", "id": 345341200, "lat": 51.4940793, "lon": -0.1458248, "tags": {"brand": "Sainsbury's Local", "brand:wikidata": "Q13218434", "brand:wikipedia": "en:Sainsbury's Local", "name": "Sainsbury's Local", "opening_hours": "06:00-23:00", "operator:wikidata": "Q152096", "shop": "convenience", "website": "https://stores.sainsburys.co.uk/4065/victoria-place-local"}}, {"type": "node", "id": 345858516, "lat": 51.4920609, "lon": -0.1213969, "tags": {"addr:city": "London", "addr:housenumber": "9B", "addr:postcode": "SE1 7SP", "addr:street": "Albert Embankment", "check_date": "2025-06-13", "fhrs:authority": "Lambeth", "fhrs:id": "483195", "fhrs:inspectiondate": "2010-03-12", "fhrs:rating": "4", "name": "Embankment Grocery", "payment:cash": "yes", "payment:credit_cards": "yes", "payment:debit_cards": "yes", "shop": "convenience"}}, {"type": "node", "id": 347294416, "lat": 51.5187011, "lon": -0.0877872}, {"type": "node", "id": 347294421, "lat": 51.5187082, "lon": -0.0875145}, {"type": "node", "id": 347294422, "lat": 51.5186939, "lon": -0.0874501}, {"type": "node", "id": 347294423, "lat": 51.5186339, "lon": -0.0874845}, {"type": "node", "id": 347294429, "lat": 51.5168201, "lon": -0.0834401}, {"type": "node", "id": 347294447, "lat": 51.517456, "lon": -0.0833557}, {"type": "node", "id": 348861308, "lat": 51.5100581, "lon": -0.1299577}, {"type": "node", "id": 348911998, "lat": 51.5124556, "lon": -0.1338386, "tags": {"addr:housenumber": "10", "addr:street": "Brewer Street", "check_date:opening_hours": "2025-07-21", "name": "heaven by Marc Jacobs", "opening_hours:signed": "no", "shop": "clothes", "wheelchair": "limited"}}, {"type": "node", "id": 350392310, "lat": 51.5143346, "lon": -0.1039676}, {"type": "node", "id": 351506484, "lat": 51.5090349, "lon": -0.1268017}, {"type": "node", "id": 351506488, "lat": 51.509062, "lon": -0.1267732}, {"type": "node", "id": 351506490, "lat": 51.5090631, "lon": -0.1267013}, {"type": "node", "id": 351506493, "lat": 51.5090389, "lon": -0.1266724}, {"type": "node", "id": 351506497, "lat": 51.5090088, "lon": -0.1267004}, {"type": "node", "id": 351506500, "lat": 51.5090075, "lon": -0.1267672}, {"type": "node", "id": 357999712, "lat": 51.5111438, "lon": -0.1218098}, {"type": "node", "id": 364553628, "lat": 51.5242625, "lon": -0.1385837}, {"type": "node", "id": 366594204, "lat": 51.5141398, "lon": -0.1075892}, {"type": "node", "id": 367105605, "lat": 51.5129874, "lon": -0.1005038}, {"type": "node", "id": 367735553, "lat": 51.5179548, "lon": -0.1342209}, {"type": "node", "id": 367735573, "lat": 51.5184501, "lon": -0.1325198}, {"type": "node", "id": 367735591, "lat": 51.5185466, "lon": -0.1327371}, {"type": "node", "id": 367735598, "lat": 51.5184257, "lon": -0.1330403, "tags": {"erected_by": "London County Council", "historic": "memorial", "inscription": "Coventry Patmore 1823-1896 Poet and Essayist lived here 1863-1864", "memorial": "blue_plaque", "name": "Coventry Patmore", "openplaques:id": "554", "subject:wikidata": "Q716197"}}, {"type": "node", "id": 370711703, "lat": 51.5100652, "lon": -0.1246326}, {"type": "node", "id": 372515793, "lat": 51.5139898, "lon": -0.1460876}, {"type": "node", "id": 373348206, "lat": 51.514423, "lon": -0.0963618}, {"type": "node", "id": 373348210, "lat": 51.5140944, "lon": -0.0945905}, {"type": "node", "id": 373348213, "lat": 51.5132751, "lon": -0.0949369}, {"type": "node", "id": 373348221, "lat": 51.5134267, "lon": -0.0961991}, {"type": "node", "id": 373348225, "lat": 51.5136626, "lon": -0.0962405}, {"type": "node", "id": 373348229, "lat": 51.5139111, "lon": -0.0963229}, {"type": "node", "id": 373348237, "lat": 51.5142262, "lon": -0.0966403}, {"type": "node", "id": 373442556, "lat": 51.5165501, "lon": -0.1306653, "tags": {"addr:housenumber": "4a", "addr:street": "Oxford Street", "check_date": "2025-06-13", "name": "Basicmart", "shop": "tobacco;e-cigarette", "was:name": "Carphone Warehouse;Fiestmart"}}, {"type": "node", "id": 376064059, "lat": 51.5273813, "lon": -0.0769295}, {"type": "node", "id": 376064110, "lat": 51.5273804, "lon": -0.0737983, "tags": {"addr:city": "London", "addr:housenumber": "59", "addr:postcode": "E2 7NF", "addr:street": "Virginia Road", "name": "Virginia Supermarket", "shop": "convenience"}}, {"type": "node", "id": 376064198, "lat": 51.522374, "lon": -0.0781778, "tags": {"addr:city": "London", "addr:housenumber": "227", "addr:postcode": "E1 6PJ", "addr:street": "Shoreditch High Street", "check_date": "2024-08-31", "fhrs:id": "469639", "name": "Food & Wine", "shop": "convenience", "wheelchair": "limited"}}, {"type": "node", "id": 377501917, "lat": 51.5185458, "lon": -0.0775869, "tags": {"brand": "Richer Sounds", "brand:wikidata": "Q7330409", "name": "Richer Sounds", "opening_hours:signed": "no", "shop": "hifi", "wheelchair": "no"}}, {"type": "node", "id": 378166954, "lat": 51.5247735, "lon": -0.1236751}, {"type": "node", "id": 378166961, "lat": 51.52462, "lon": -0.1243944}, {"type": "node", "id": 378166971, "lat": 51.525011, "lon": -0.1246302}, {"type": "node", "id": 378166979, "lat": 51.5251756, "lon": -0.123914}, {"type": "node", "id": 378757159, "lat": 51.5257053, "lon": -0.085793}, {"type": "node", "id": 381031245, "lat": 51.4890009, "lon": -0.1226763, "tags": {"amenity": "atm", "brand": "Nationwide", "brand:wikidata": "Q846735", "currency:GBP": "yes", "drive_through": "no", "fee": "no", "operator": "Nationwide", "operator:wikidata": "Q846735"}}, {"type": "node", "id": 381913111, "lat": 51.5232104, "lon": -0.1015652, "tags": {"addr:city": "London", "addr:housenumber": "32", "addr:street": "Great Sutton Street", "name": "Metro Imaging", "shop": "copyshop", "source": "survey", "website": "https://metroimaging.co.uk/"}}, {"type": "node", "id": 382185026, "lat": 51.5135672, "lon": -0.1348154}, {"type": "node", "id": 382186111, "lat": 51.5139629, "lon": -0.1351862, "tags": {"shop": "convenience"}}, {"type": "node", "id": 382400448, "lat": 51.5161558, "lon": -0.1348814, "tags": {"brand": "Sunglass Hut", "brand:wikidata": "Q136311", "brand:wikipedia": "en:Sunglass Hut", "check_date": "2025-04-29", "ele": "40.000", "level": "0", "name": "Sunglass Hut", "shop": "optician", "source": "unknown;survey"}}, {"type": "node", "id": 382400626, "lat": 51.5143252, "lon": -0.1487448}, {"type": "node", "id": 382400807, "lat": 51.5161646, "lon": -0.1324695, "tags": {"addr:housenumber": "53", "addr:street": "Oxford Street", "brand": "Whittard of Chelsea", "brand:wikidata": "Q7996831", "check_date": "2025-06-13", "ele": "20.000", "name": "Whittard", "shop": "tea", "website": "https://stores.whittard.co.uk/whittard-of-chelsea-oxford-street", "wheelchair": "limited"}}, {"type": "node", "id": 382512991, "lat": 51.5148654, "lon": -0.1349558}, {"type": "node", "id": 382513004, "lat": 51.5148449, "lon": -0.1336659}, {"type": "node", "id": 382513014, "lat": 51.5147815, "lon": -0.1350686}, {"type": "node", "id": 382513036, "lat": 51.5139734, "lon": -0.1341419, "tags": {"addr:housenumber": "112-114", "addr:street": "Wardour Street", "name": "Print Room Soho", "shop": "copyshop", "wheelchair": "yes"}}, {"type": "node", "id": 382513043, "lat": 51.5139628, "lon": -0.134735}, {"type": "node", "id": 382513051, "lat": 51.5144431, "lon": -0.1348233}, {"type": "node", "id": 383964407, "lat": 51.515578, "lon": -0.140945, "tags": {"addr:city": "London", "addr:country": "GB", "addr:housenumber": "216", "addr:street": "Oxford Street", "brand": "Vans", "brand:wikidata": "Q1135366", "check_date": "2025-07-23", "name": "Vans", "old_name": "Miss Selfridge", "shop": "shoes", "wheelchair": "yes"}}, {"type": "node", "id": 383964408, "lat": 51.5157944, "lon": -0.1404516}, {"type": "node", "id": 383964410, "lat": 51.5153738, "lon": -0.1404164, "tags": {"entrance": "main"}}, {"type": "node", "id": 383964411, "lat": 51.5153499, "lon": -0.1406028, "tags": {"entrance": "main"}}, {"type": "node", "id": 383964413, "lat": 51.5155761, "lon": -0.1403758}, {"type": "node", "id": 383964414, "lat": 51.515302, "lon": -0.1401124}, {"type": "node", "id": 383964418, "lat": 51.5154456, "lon": -0.1397105}, {"type": "node", "id": 383964424, "lat": 51.515729, "lon": -0.1390898, "tags": {"addr:city": "London", "addr:housenumber": "174-176", "addr:postcode": "W1D 1NX", "addr:street": "Oxford Street", "air_conditioning": "yes", "brand": "H&M", "brand:wikidata": "Q188326", "brand:wikipedia": "en:H&M", "check_date": "2025-07-21", "check_date:opening_hours": "2025-07-21", "level": "0", "name": "H&M", "opening_hours": "Mo-Sa 09:00-22:00; Su 12:00-18:00", "operator": "H&M Hennes & Mauritz UK", "payment:american_express": "yes", "phone": "+44 344 7369000", "shop": "clothes", "source": "receipt from visit", "website": "https://www.hm.com/UK", "wheelchair": "yes"}}, {"type": "node", "id": 383964432, "lat": 51.5155217, "lon": -0.1389434, "tags": {"entrance": "main"}}, {"type": "node", "id": 383974162, "lat": 51.5157801, "lon": -0.1386809, "tags": {"addr:housenumber": "170", "addr:street": "Oxford Street", "brand": "Uniqlo", "brand:wikidata": "Q26070", "brand:wikipedia": "en:Uniqlo", "check_date": "2025-06-15", "clothes": "fashion", "name": "Uniqlo", "opening_hours": "Mo-Sa 10:00-21:00; Su 12:00-18:00", "payment:american_express": "yes", "payment:cash": "yes", "payment:credit_cards": "yes", "shop": "clothes", "website": "https://www.uniqlo.com/uk/en/content/store-locator.html?storeId=10700002", "wheelchair": "yes"}}, {"type": "node", "id": 383979067, "lat": 51.5157999, "lon": -0.1381321}, {"type": "node", "id": 383979075, "lat": 51.51628, "lon": -0.1378937}, {"type": "node", "id": 383979077, "lat": 51.5153352, "lon": -0.1374242}, {"type": "node", "id": 383979082, "lat": 51.5156902, "lon": -0.1373739, "tags": {"entrance": "main"}}, {"type": "node", "id": 383979083, "lat": 51.5156992, "lon": -0.1372619, "tags": {"entrance": "main"}}, {"type": "node", "id": 383979085, "lat": 51.5158928, "lon": -0.1374583, "tags": {"addr:city": "London", "addr:housenumber": "142-144", "addr:postcode": "W1D 1LZ", "addr:street": "Oxford Street", "check_date": "2024-09-10", "name": "Cool Britannia", "shop": "gift"}}, {"type": "node", "id": 384525167, "lat": 51.5224638, "lon": -0.1143442}, {"type": "node", "id": 384525170, "lat": 51.5224976, "lon": -0.1142338}, {"type": "node", "id": 384525173, "lat": 51.5225173, "lon": -0.114383}, {"type": "node", "id": 384525176, "lat": 51.5225503, "lon": -0.1142714}, {"type": "node", "id": 384759667, "lat": 51.515789, "lon": -0.1363566, "tags": {"entrance": "main"}}, {"type": "node", "id": 384759675, "lat": 51.5157903, "lon": -0.1360575, "tags": {"addr:city": "London", "addr:housenumber": "129-131", "addr:postcode": "W1D 2HU", "addr:street": "Oxford Street", "brand": "Jessops", "brand:wikidata": "Q3191701", "brand:wikipedia": "en:Jessops", "check_date": "2024-11-13", "check_date:opening_hours": "2024-11-13", "name": "Jessops", "opening_hours:signed": "no", "shop": "camera", "wheelchair": "no"}}, {"type": "node", "id": 384759679, "lat": 51.5158116, "lon": -0.1359073, "tags": {"addr:housenumber": "127", "addr:street": "Oxford Street", "brand": "Vodafone", "brand:wikidata": "Q122141", "brand:wikipedia": "en:Vodafone", "check_date": "2025-07-23", "check_date:opening_hours": "2025-07-23", "name": "Vodafone", "opening_hours": "Mo-Sa 10:00-20:00; Su 11:00-18:00", "payment:american_express": "yes", "shop": "mobile_phone"}}, {"type": "node", "id": 384759687, "lat": 51.5158685, "lon": -0.1354757}, {"type": "node", "id": 384759689, "lat": 51.5160707, "lon": -0.1355813}, {"type": "node", "id": 384759692, "lat": 51.5160825, "lon": -0.1354635}, {"type": "node", "id": 384761524, "lat": 51.5157175, "lon": -0.1350908}, {"type": "node", "id": 385491682, "lat": 51.5159252, "lon": -0.1349392}, {"type": "node", "id": 385491683, "lat": 51.5159302, "lon": -0.1348947, "tags": {"entrance": "main"}}, {"type": "node", "id": 385560807, "lat": 51.4971196, "lon": -0.1447503, "tags": {"old_name": "Pulbrook & Gould Flowers London", "shop": "vacant"}}, {"type": "node", "id": 385560810, "lat": 51.49721, "lon": -0.1446909, "tags": {"addr:city": "London", "addr:housenumber": "38", "addr:postcode": "SW1W 0RE", "addr:street": "Buckingham Palace Road", "name": "Pure Electric", "shop": "scooter"}}, {"type": "node", "id": 385560845, "lat": 51.4898161, "lon": -0.1299928, "tags": {"name": "The Newsagents", "shop": "newsagent"}}, {"type": "node", "id": 385560846, "lat": 51.4897931, "lon": -0.1299081, "tags": {"internet_access": "wlan", "internet_access:fee": "no", "shop": "convenience"}}, {"type": "node", "id": 385592206, "lat": 51.5155458, "lon": -0.1335578, "tags": {"addr:city": "London", "addr:housenumber": "2-4", "addr:postcode": "W1D 3RG", "addr:street": "Dean Street", "brand": "Tesco Express", "brand:wikidata": "Q98456772", "check_date": "2025-06-17", "fhrs:confidence_management": "5", "fhrs:hygiene": "5", "fhrs:id": "427976", "fhrs:local_authority_id": "00953/0002/0/001", "fhrs:rating": "5", "fhrs:structural": "5", "name": "Tesco Express", "name:fa": "\u062a\u0633\u06a9\u0648 \u0645\u062a\u0631\u0648", "opening_hours": "Mo-Fr 06:00-23:00; Sa 06:00-22:00; Su 12:00-18:00", "payment:american_express": "yes", "shop": "convenience", "source:postcode": "FSA Food Hygiene Ratings Database", "website": "https://www.tesco.com/store-locator/london/dean-st", "wheelchair": "yes"}}, {"type": "node", "id": 385707533, "lat": 51.5139178, "lon": -0.1014077}, {"type": "node", "id": 385707534, "lat": 51.5139006, "lon": -0.1012363}, {"type": "node", "id": 385707536, "lat": 51.5139124, "lon": -0.1008102}, {"type": "node", "id": 385707537, "lat": 51.5140286, "lon": -0.1008242}, {"type": "node", "id": 385707538, "lat": 51.5140283, "lon": -0.1008361}, {"type": "node", "id": 385707539, "lat": 51.5142641, "lon": -0.1008996}, {"type": "node", "id": 385707540, "lat": 51.5142759, "lon": -0.1008417}, {"type": "node", "id": 385707541, "lat": 51.514402, "lon": -0.1007994}, {"type": "node", "id": 390073172, "lat": 51.5211627, "lon": -0.097114, "tags": {"addr:city": "London", "addr:postcode": "EC2Y 8EA", "addr:street": "White Lyon Court", "name": "Barbican Laundrette", "shop": "laundry", "source:addr:postcode": "code-point_open"}}, {"type": "node", "id": 390073174, "lat": 51.520574, "lon": -0.0977172, "tags": {"addr:city": "London", "addr:housenumber": "131", "addr:postcode": "EC1A 4JQ", "addr:street": "Aldersgate Street", "branch": "Barbican Express", "brand": "Tesco Express", "brand:wikidata": "Q98456772", "check_date": "2025-10-22", "contact:website": "https://www.tesco.com/store-locator/london/131-aldersgate-st", "fhrs:id": "294443", "level": "0", "name": "Tesco Express", "name:fa": "\u062a\u0633\u06a9\u0648 \u0627\u06a9\u0633\u067e\u0631\u0633", "opening_hours": "Mo-Su 06:00-24:00", "payment:cash": "yes", "payment:credit_cards": "yes", "payment:debit_cards": "yes", "shop": "convenience", "wheelchair": "yes"}}, {"type": "node", "id": 401529121, "lat": 51.5120174, "lon": -0.128267, "tags": {"addr:housenumber": "50", "addr:street": "Charing Cross Road", "check_date": "2024-10-07", "name": "Reiwatakiya", "shop": "chemist", "source": "survey", "wheelchair": "yes"}}, {"type": "node", "id": 401529123, "lat": 51.5120741, "lon": -0.1282777, "tags": {"check_date": "2024-10-07", "level": "0", "name": "Splash", "sex": "unisex", "shop": "hairdresser", "wheelchair": "no"}}, {"type": "node", "id": 401529125, "lat": 51.5125448, "lon": -0.1285003, "tags": {"addr:housenumber": "72", "addr:street": "Charing Cross Road", "books": "antiquarian", "name": "Quinto Bookshop", "shop": "books", "website": "https://quintobookshop.co.uk/"}}, {"type": "node", "id": 401529127, "lat": 51.5127283, "lon": -0.1286031, "tags": {"addr:city": "London", "addr:housenumber": "80", "addr:postcode": "WC2H 0BF", "addr:street": "Charing Cross Road", "name": "Koenig Books", "phone": "+44 20 7240 8190", "shop": "books"}}, {"type": "node", "id": 401529128, "lat": 51.5126071, "lon": -0.1285413, "tags": {"addr:housenumber": "74", "addr:street": "Charing Cross Road", "contact:website": "http://www.andytuly.co.uk/", "name": "Andy & Tuly", "shop": "clothes"}}, {"type": "node", "id": 401529131, "lat": 51.5124232, "lon": -0.1284393, "tags": {"clothes": "goth_accessories", "name": "Strange", "shop": "clothes", "wheelchair": "yes"}}, {"type": "node", "id": 401529132, "lat": 51.5121161, "lon": -0.1282985, "tags": {"addr:city": "London", "addr:housenumber": "56", "addr:postcode": "WC2H 0QA", "addr:street": "Charing Cross Road", "books": "antiquarian", "check_date": "2024-10-07", "facebook": "https://www.facebook.com/Any-Amount-of-Books-215865368549940/", "level": "0", "name": "Any Amount of Books", "opening_hours": "Mo-Sa 11:30-19:30; Su 12:30-18:30", "phone": "+44 20 7836 3697", "shop": "books", "website": "https://www.anyamountofbooks.com/", "wheelchair": "limited"}}, {"type": "node", "id": 401529133, "lat": 51.5122231, "lon": -0.128347, "tags": {"addr:city": "London", "addr:housenumber": "58,60", "addr:postcode": "WC2H 0BB", "addr:street": "Charing Cross Road", "books": "antiquarian", "check_date": "2024-10-07", "email": "info@henrypordesbooks.com", "facebook": "https://www.facebook.com/Henry-Pordes-Books-Ltd-228642767265633/", "name": "Henry Pordes Books", "opening_hours": "Mo-Su 10:30-19:30", "payment:american_express": "yes", "phone": "+44 20 7836 9031", "shop": "books", "twitter": "HenryPordesBook", "website": "http://www.henrypordesbooks.com/", "wheelchair": "limited"}}, {"type": "node", "id": 401529146, "lat": 51.5138695, "lon": -0.1293098}, {"type": "node", "id": 401529156, "lat": 51.5143282, "lon": -0.1294613, "tags": {"addr:housenumber": "104", "addr:street": "Charing Cross Road", "name": "Kiera corner", "shop": "newsagent", "wheelchair": "no"}}, {"type": "node", "id": 401529159, "lat": 51.5148933, "lon": -0.1296503, "tags": {"addr:housenumber": "124", "addr:street": "Charing Cross Road", "brand": "TK Maxx", "brand:wikidata": "Q23823668", "brand:wikipedia": "en:TK Maxx", "check_date": "2025-08-20", "level": "0", "name": "TK Maxx", "opening_hours": "Mo-Sa 09:00-21:00; Su 11:30-18:00", "payment:cash": "yes", "payment:credit_cards": "yes", "payment:debit_cards": "yes", "shop": "department_store", "wheelchair": "yes"}}, {"type": "node", "id": 401529161, "lat": 51.5152059, "lon": -0.1298942, "tags": {"addr:housenumber": "128", "addr:street": "Charing Cross Road", "check_date": "2025-04-02", "cuisine": "lebanese", "name": "Barnabry", "shop": "chocolate"}}, {"type": "node", "id": 401529163, "lat": 51.5153066, "lon": -0.1299139, "tags": {"addr:housenumber": "134", "addr:street": "Charing Cross Road", "check_date": "2025-04-02", "name": "buns from home", "shop": "bakery"}}, {"type": "node", "id": 401529165, "lat": 51.5154731, "lon": -0.1291623}, {"type": "node", "id": 415822143, "lat": 51.4882133, "lon": -0.1386821, "tags": {"addr:city": "London", "addr:housenumber": "52", "addr:postcode": "SW1V 3EE", "addr:street": "Lupus Street", "old_name": "Frida's Pimlico", "shop": "vacant"}}, {"type": "node", "id": 415822145, "lat": 51.4876065, "lon": -0.1418649, "tags": {"addr:city": "London", "addr:housenumber": "117", "addr:postcode": "SW1V 3EN", "addr:street": "Lupus Street", "check_date": "2024-04-04", "fhrs:confidence_management": "10", "fhrs:hygiene": "15", "fhrs:id": "413418", "fhrs:local_authority_id": "01180/0117/0/000", "fhrs:rating": "2", "fhrs:structural": "10", "name": "Star Meat", "shop": "butcher", "source:addr": "FSA Food Hygiene Ratings Database", "source:postcode": "FSA Food Hygiene Ratings Database"}}, {"type": "node", "id": 416995742, "lat": 51.5070683, "lon": -0.1457381, "tags": {"addr:city": "London", "addr:housenumber": "50-52", "addr:postcode": "W1J 7UP", "addr:street": "Curzon Street", "brand": "Tesco Express", "brand:wikidata": "Q98456772", "brand:wikipedia": "en:Tesco", "contact:website": "https://www.tesco.com/store-locator/london/50-52-curzon-st", "fhrs:id": "427972", "name": "Tesco Express", "shop": "convenience", "source:addr": "FSA Food Hygiene Ratings Database"}}, {"type": "node", "id": 418799859, "lat": 51.4934845, "lon": -0.1507676}, {"type": "node", "id": 428964044, "lat": 51.4916366, "lon": -0.1464145, "tags": {"brand": "Londis", "brand:wikidata": "Q21008564", "brand:wikipedia": "en:Londis (United Kingdom)", "name": "Londis", "shop": "convenience"}}, {"type": "node", "id": 430435466, "lat": 51.529372, "lon": -0.1203346, "tags": {"addr:city": "London", "addr:housenumber": "279", "addr:postcode": "WC1X 8QF", "addr:street": "Gray's Inn Road", "amenity": "cafe", "indoor_seating": "yes", "name": "Aux Pains de Papy", "outdoor_seating": "yes", "shop": "bakery"}}, {"type": "node", "id": 430634390, "lat": 51.4905471, "lon": -0.1443641, "tags": {"addr:housenumber": "59", "addr:street": "Cambridge Street", "name": "Bash", "shop": "convenience"}}, {"type": "node", "id": 430634393, "lat": 51.4905242, "lon": -0.1442843, "tags": {"name": "Classic Bindings", "shop": "books"}}, {"type": "node", "id": 435104754, "lat": 51.5208976, "lon": -0.0886617}, {"type": "node", "id": 435104755, "lat": 51.5206944, "lon": -0.0887121}, {"type": "node", "id": 439237930, "lat": 51.4942796, "lon": -0.0923587, "tags": {"addr:city": "London", "addr:floor": "0", "addr:housenumber": "165-167", "addr:postcode": "SE1 4AG", "addr:street": "New Kent Road", "name": "La Reina", "shop": "butcher", "source:addr": "FHRS Open Data"}}, {"type": "node", "id": 439447912, "lat": 51.514964, "lon": -0.0827599}, {"type": "node", "id": 441966150, "lat": 51.5151432, "lon": -0.0987366, "tags": {"addr:city": "London", "addr:housenumber": "1", "addr:postcode": "EC4M 7DZ", "addr:street": "Queens Head Passage", "branch": "London Paternoster Square", "fhrs:id": "294300", "fhrs:local_authority_id": "PI/000012853", "medical_supply": "yes", "ref": "793", "shop": "vacant", "source:addr": "FHRS Open Data", "wheelchair": "yes"}}, {"type": "node", "id": 442330101, "lat": 51.4942863, "lon": -0.0922242, "tags": {"addr:housenumber": "169", "shop": "dry_cleaning"}}, {"type": "node", "id": 442330102, "lat": 51.4942749, "lon": -0.0920918, "tags": {"addr:housenumber": "171", "name": "Standard Cuts", "shop": "hairdresser"}}, {"type": "node", "id": 442330105, "lat": 51.4943009, "lon": -0.0915838, "tags": {"addr:city": "London", "addr:housenumber": "179", "addr:postcode": "SE1 4AG", "addr:street": "New Kent Road", "name": "New Kent Road General Store", "shop": "convenience"}}, {"type": "node", "id": 442373387, "lat": 51.5145914, "lon": -0.0955668}, {"type": "node", "id": 443030959, "lat": 51.4859172, "lon": -0.16143}, {"type": "node", "id": 443404498, "lat": 51.4915528, "lon": -0.1588833, "tags": {"addr:city": "London", "addr:housenumber": "31", "addr:postcode": "SW3 4LY", "addr:street": "Duke of York Square", "name": "Trilogy", "phone": "+44 20 7730 6515", "shop": "clothes", "website": "https://www.trilogystores.co.uk/", "wheelchair": "yes"}}, {"type": "node", "id": 443404505, "lat": 51.4916388, "lon": -0.1586821, "tags": {"addr:city": "London", "addr:housenumber": "34", "addr:postcode": "SW3 4LY", "addr:street": "Duke of York Square", "clothes": "children", "name": "Dubarry of Ireland", "phone": "+44 20 7823 4227", "shop": "clothes", "website": "https://www.dubarry.com/", "wikidata": "Q5310646", "wikipedia": "en:Dubarry of Ireland"}}, {"type": "node", "id": 443404521, "lat": 51.4917708, "lon": -0.1584107, "tags": {"addr:city": "London", "addr:housenumber": "38-39", "addr:postcode": "SW3 4LY", "addr:street": "Duke of York Square", "brand": "Free People", "brand:wikidata": "Q5499945", "brand:wikipedia": "en:Free People", "name": "Free People", "phone": "+44 20 3973 4744", "shop": "clothes", "website": "https://www.freepeople.com/uk/"}}, {"type": "node", "id": 443404524, "lat": 51.4918075, "lon": -0.1583341, "tags": {"addr:city": "London", "addr:housenumber": "40", "addr:postcode": "SW3 4LY", "addr:street": "Duke of York Square", "name": "Hayley Menzies", "phone": "+44 20 8969 5300", "shop": "clothes", "website": "https://hayleymenzies.com/"}}, {"type": "node", "id": 443404563, "lat": 51.4912522, "lon": -0.158971, "tags": {"addr:city": "London", "addr:housenumber": "82", "addr:postcode": "SW3 4LY", "addr:street": "Duke of York Square", "name": "Richard Ward", "phone": "+44 20 7730 1222", "shop": "hairdresser", "website": "https://www.richardward.com/"}}, {"type": "node", "id": 443404585, "lat": 51.4920442, "lon": -0.1582855, "tags": {"addr:city": "London", "addr:housenumber": "45", "addr:postcode": "SW3 4RP", "addr:street": "Duke of York Square", "name": "Jacques Flowers", "phone": "+44 20 7823 5577", "shop": "florist"}}, {"type": "node", "id": 443404588, "lat": 51.4919243, "lon": -0.1581501, "tags": {"addr:city": "London", "addr:housenumber": "50", "addr:postcode": "SW3 4LY", "addr:street": "Duke of York Square", "name": "Franchetti Bond", "phone": "+44 20 7823 5550", "shop": "clothes", "website": "https://franchettibond.co.uk/"}}, {"type": "node", "id": 443404602, "lat": 51.4909754, "lon": -0.1607595}, {"type": "node", "id": 443404607, "lat": 51.4908132, "lon": -0.1606135}, {"type": "node", "id": 443414510, "lat": 51.4895232, "lon": -0.0962805, "tags": {"addr:housenumber": "199", "addr:street": "Walworth Road", "check_date": "2025-09-17", "name": "Xact Print", "opening_hours": "Mo-Fr 11:00-17:00", "shop": "copyshop", "wheelchair": "no"}}, {"type": "node", "id": 443655162, "lat": 51.4901857, "lon": -0.1572384, "tags": {"addr:city": "London", "addr:country": "GB", "addr:housenumber": "66", "addr:postcode": "SW1W 8BP", "addr:street": "Lower Sloane Street", "fhrs:id": "334831", "name": "The Chelsea Cake Shop", "phone": "+44 20 7730 6277", "shop": "bakery", "website": "https://www.chelseacakeshop.co.uk/"}}, {"type": "node", "id": 443655232, "lat": 51.4912017, "lon": -0.1608654, "tags": {"addr:city": "London", "addr:housenumber": "72", "addr:postcode": "SW3 4UG", "addr:street": "King's Road", "brand": "& Other Stories", "brand:wikidata": "Q85322338", "clothes": "women", "name": "& Other Stories", "phone": "+44 20 3402 0160", "shop": "clothes", "website": "https://www.stories.com/"}}, {"type": "node", "id": 444284503, "lat": 51.4921237, "lon": -0.1583705, "tags": {"addr:city": "London", "addr:housenumber": "27a", "addr:postcode": "SW3 4RP", "addr:street": "Sloane Square", "brand": "Essentiel Antwerp", "brand:wikidata": "Q117456339", "name": "Essentiel Antwerp", "phone": "+44 20 7730 9393", "shop": "clothes", "website": "https://www.essentiel-antwerp.com/uk/"}}, {"type": "node", "id": 444284514, "lat": 51.4920863, "lon": -0.1584539, "tags": {"addr:city": "London", "addr:housenumber": "9", "addr:postcode": "SW3 4RP", "addr:street": "King's Road", "name": "NU", "phone": "+44 20 4506 6140", "shop": "clothes", "website": "https://www.nulondon.uk/"}}, {"type": "node", "id": 444284527, "lat": 51.4920155, "lon": -0.1586141, "tags": {"addr:city": "London", "addr:housenumber": "13", "addr:postcode": "SW3 4RP", "addr:street": "King's Road", "clothes": "underwear", "name": "Rigby & Peller", "phone": "+44 20 7824 1840", "shop": "clothes", "website": "https://www.rigbyandpeller.com/en-gb/"}}, {"type": "node", "id": 444284571, "lat": 51.4918241, "lon": -0.1590444, "tags": {"addr:city": "London", "addr:housenumber": "27", "addr:postcode": "SW3 4RP", "addr:street": "King's Road", "name": "NARS", "phone": "+44 20 7730 2222", "shop": "cosmetics", "website": "https://www.narscosmetics.co.uk/en"}}, {"type": "node", "id": 444284577, "lat": 51.4917921, "lon": -0.1591127, "tags": {"addr:city": "London", "addr:housenumber": "29", "addr:postcode": "SW3 4RP", "addr:street": "King's Road", "name": "Eric Bompard", "phone": "+44 20 7730 9826", "shop": "clothes", "website": "https://www.eric-bompard.com/fr_fr"}}, {"type": "node", "id": 444284619, "lat": 51.490514, "lon": -0.1616192, "tags": {"addr:city": "London", "addr:housenumber": "33F", "addr:postcode": "SW3 4LX", "addr:street": "King's Road", "name": "Shiro", "opening_hours": "Mo-Sa 10:00-19:00, Su 12:00-18:00", "phone": "+44 20 3319 3680", "shop": "cosmetics", "website": "https://shiro-shiro.uk/"}}, {"type": "node", "id": 444284623, "lat": 51.4904757, "lon": -0.1616884, "tags": {"addr:city": "London", "addr:housenumber": "33G", "addr:postcode": "SW3 4LX", "addr:street": "King's Road", "brand": "Geox", "brand:wikidata": "Q588001", "brand:wikipedia": "en:Geox", "name": "Geox", "phone": "+44 20 7730 6787", "shop": "shoes", "website": "https://www.geox.com/en-GB"}}, {"type": "node", "id": 444284627, "lat": 51.490434, "lon": -0.1617361, "tags": {"addr:city": "London", "addr:housenumber": "33H", "addr:postcode": "SW3 4LX", "addr:street": "King's Road", "brand": "Ecco", "brand:wikidata": "Q1280255", "brand:wikipedia": "en:ECCO", "name": "Ecco", "opening_hours": "Mo-Sa 10:00-19:00, Su 12:00-16:00", "phone": "+44 20 7730 4945", "shop": "shoes"}}, {"type": "node", "id": 444285243, "lat": 51.4902469, "lon": -0.1621108, "tags": {"addr:city": "London", "addr:housenumber": "43", "addr:postcode": "SW3 4NB", "addr:street": "King's Road", "brand": "Vision Express", "brand:wikidata": "Q7936150", "brand:wikipedia": "en:Vision Express", "name": "Vision Express", "opening_hours": "Mo-Sa 10:00-19:00; Su 12:00-18:00", "phone": "+44 20 7259 9284", "shop": "optician", "website": "https://www.visionexpress.com/opticians/chelsea/london-chelsea-kings-road"}}, {"type": "node", "id": 444686855, "lat": 51.4898035, "lon": -0.1629152, "tags": {"addr:city": "London", "addr:housenumber": "51", "addr:street": "King\u2019s Road", "brand": "Timpson", "brand:wikidata": "Q7807658", "name": "Timpson", "operator": "Timpson", "phone": "+44 20 7730 9917", "shop": "shoe_repair", "website": "https://www.timpson.co.uk/stores/london-kings-road/"}}, {"type": "node", "id": 444686857, "lat": 51.4897103, "lon": -0.163075, "tags": {"addr:city": "London", "addr:housenumber": "57", "addr:street": "King\u2019s Road", "name": "Superga", "opening_hours": "Mo-Sa 10:00-19:00; Su 12:00-18:00", "operator": "Crocs", "phone": "+44 20 7259 0649", "shop": "shoes", "website": "https://www.superga.co.uk/"}}, {"type": "node", "id": 444686858, "lat": 51.4896855, "lon": -0.1631311, "tags": {"addr:city": "London", "addr:housenumber": "57,59", "addr:interpolation": "odd", "addr:street": "King\u2019s Road", "name": "Ma\u00eetre Choux", "opening_hours": "Mo-Sa 08:00-20:00, Su 10:00-20:00", "phone": "+44 20 3915 3777", "shop": "pastry", "website": "https://www.maitrechoux.com/"}}, {"type": "node", "id": 444687229, "lat": 51.4894456, "lon": -0.1636567, "tags": {"addr:city": "London", "addr:housenumber": "67", "addr:street": "King\u2019s Road", "name": "Freddy Pantroom", "opening_hours": "Mo-Fr 10:00-19:00; Sa 10:00-19:00; Su 12:00-18:00", "phone": "+44 20 7730 3560", "shop": "clothes", "website": "https://www.freddy.com/uk_en/", "wheelchair": "yes"}}, {"type": "node", "id": 444687624, "lat": 51.4905367, "lon": -0.1620883, "tags": {"addr:city": "London", "addr:housenumber": "106-108", "addr:street": "King\u2019s Road", "brand": "Petit Bateau", "brand:wikidata": "Q3377090", "brand:wikipedia": "en:Petit Bateau", "clothes": "children", "name": "Petit Bateau", "opening_hours": "Mo,Tu,Fr,Sa 10:00-18:30; We 10:00-19:00; Th 10:00-19:00; Su,PH 12:00-18:00", "shop": "clothes"}}, {"type": "node", "id": 444687648, "lat": 51.4905854, "lon": -0.1619985, "tags": {"addr:city": "London", "addr:housenumber": "104", "addr:street": "King\u2019s Road", "brand": "Liu Jo", "brand:wikidata": "Q3835099", "name": "Liu Jo", "opening_hours": "Mo-Sa 10:00-19:00; Su 12:00-18:00", "shop": "clothes"}}, {"type": "node", "id": 444687781, "lat": 51.4906167, "lon": -0.1619409, "tags": {"addr:city": "London", "addr:housenumber": "102", "addr:postcode": "SW3 4TZ", "addr:street": "King\u2019s Road", "name": "Twinset", "opening_hours": "Mo-Sa 10:00-19:00; Su 12:00-18:00", "phone": "+44 20 3643 6183", "shop": "clothes", "website": "https://www.twinset.com/"}}, {"type": "node", "id": 444687785, "lat": 51.4906508, "lon": -0.1618782, "tags": {"addr:city": "London", "addr:housenumber": "100", "addr:postcode": "SW3 4TZ", "addr:street": "King\u2019s Road", "brand": "Vodafone", "brand:wikidata": "Q122141", "brand:wikipedia": "en:Vodafone", "name": "Vodafone", "opening_hours": "Mo-Sa 10:00-19:00; Su 12:00-18:00", "phone": "+44 7917 270044", "shop": "mobile_phone"}}, {"type": "node", "id": 445685336, "lat": 51.4907466, "lon": -0.1617018, "tags": {"addr:city": "London", "addr:housenumber": "94", "addr:postcode": "SW3 4TZ", "addr:street": "King\u2019s Road", "name": "Rixo", "opening_hours": "Mo-Sa 10:00-19:00; Su 12:00-18:00", "phone": "+44 7999 103216", "shop": "clothes", "website": "https://rixo.co.uk/"}}, {"type": "node", "id": 445685344, "lat": 51.4906844, "lon": -0.1618163, "tags": {"addr:city": "London", "addr:housenumber": "98", "addr:postcode": "SW3 4TZ", "addr:street": "King\u2019s Road", "brand": "Kujten", "brand:wikidata": "Q104889858", "clothes": "women;men;children", "name": "Kujten", "opening_hours": "Mo-Sa 10:00-19:00; Su 12:00-18:00", "phone": "+44 20 7589 9888", "shop": "clothes", "website": "https://www.kujten.com/"}}, {"type": "node", "id": 445685352, "lat": 51.4907785, "lon": -0.161643, "tags": {"addr:city": "London", "addr:housenumber": "92", "addr:postcode": "SW3 4TZ", "addr:street": "King\u2019s Road", "brand": "Bimba y Lola", "brand:wikidata": "Q54869493", "clothes": "women", "name": "Bimba y Lola", "phone": "+44 20 7584 8174", "shop": "clothes", "website": "https://www.bimbaylola.com/gb_en/"}}, {"type": "node", "id": 445685370, "lat": 51.4908899, "lon": -0.1614378, "tags": {"addr:city": "London", "addr:housenumber": "84-86", "addr:interpolation": "even", "addr:postcode": "SW3 4TZ", "addr:street": "King\u2019s Road", "brand": "Hobbs", "brand:wikidata": "Q25108740", "name": "Hobbs", "operator": "Hobbs", "phone": "+44 20 7581 2914", "shop": "clothes", "website": "https://www.hobbs.com/"}}, {"type": "node", "id": 445685404, "lat": 51.4909743, "lon": -0.1612825, "tags": {"addr:city": "London", "addr:housenumber": "80", "addr:postcode": "SW3 4TZ", "addr:street": "King\u2019s Road", "brand": "Three", "brand:wikidata": "Q407009", "check_date": "2024-09-20", "name": "Three.", "shop": "mobile_phone", "website": "https://locator.three.co.uk/london/chelsea/80-kings-road"}}, {"type": "node", "id": 447869770, "lat": 51.5183672, "lon": -0.1243965}, {"type": "node", "id": 447874478, "lat": 51.5141088, "lon": -0.1312706}, {"type": "node", "id": 447877778, "lat": 51.5166468, "lon": -0.1279773, "tags": {"addr:city": "London", "addr:housenumber": "71-75", "addr:postcode": "WC1A 1DG", "addr:street": "New Oxford Street", "amenity": "post_office", "check_date": "2024-03-09", "fhrs:id": "1081330", "name": "The Convenience Store", "ref:pol_id": "145432", "shop": "convenience"}}, {"type": "node", "id": 448544567, "lat": 51.5100567, "lon": -0.1454197}, {"type": "node", "id": 450211897, "lat": 51.490476, "lon": -0.1670638, "tags": {"addr:housenumber": "1", "addr:street": "Godfrey Street", "name": "Chelsea Green Valet", "opening_hours": "Mo-Fr 08:00-18:30, Sa 08:00-17:00", "phone": "+44 20 7589 0044", "shop": "dry_cleaning", "website": "https://www.chelseagreenvalet.co.uk/", "wheelchair": "yes"}}, {"type": "node", "id": 450211899, "lat": 51.4904948, "lon": -0.1668622, "tags": {"addr:housenumber": "53", "addr:street": "Godfrey Street", "name": "Felt", "phone": "+44 20 7352 1718", "shop": "jewelry", "website": "https://feltlondon.com/", "wheelchair": "limited"}}, {"type": "node", "id": 450211910, "lat": 51.4905283, "lon": -0.1662055, "tags": {"addr:housenumber": "5-7", "addr:street": "Cale Street", "name": "Alec Drew Picture Frames", "phone": "+44 20 7352 8716", "shop": "frame", "website": "http://www.alec-drew.co.uk/", "wheelchair": "no"}}, {"type": "node", "id": 450211937, "lat": 51.4899208, "lon": -0.1631153, "tags": {"addr:housenumber": "124a", "addr:street": "King's Road", "brand": "Scribbler", "brand:website": "https://www.scribbler.com/", "brand:wikidata": "Q28457455", "brand:wikipedia": "en:Scribbler (card shop)", "name": "Scribbler", "opening_hours": "Mo-Sa 09:00-19:30; Su 10:00-19:00", "phone": "+44 20 7589 8602", "shop": "gift", "wheelchair": "limited"}}, {"type": "node", "id": 450252604, "lat": 51.4897252, "lon": -0.1634607, "tags": {"addr:housenumber": "130", "addr:street": "King's Road", "check_date": "2024-11-25", "name": "American Dry Cleaning Company", "opening_hours": "Mo-Fr 08:00-19:00; Sa 09:00-18:00; Su 11:00-17:00", "phone": "+44 20 7349 8222", "shop": "dry_cleaning", "website": "https://www.americandrycleaningcompany.com/kings-road/"}}, {"type": "node", "id": 450252605, "lat": 51.4897005, "lon": -0.1635075, "tags": {"addr:housenumber": "132", "addr:street": "King's Road", "check_date": "2024-11-25", "name": "Les N\u00e9r\u00e9ides", "phone": "+44 20 7584 5200", "shop": "jewelry", "website": "https://www.lesnereides.com/en/store?id_store=1683"}}, {"type": "node", "id": 450252619, "lat": 51.4892194, "lon": -0.1647019, "tags": {"addr:city": "London", "addr:housenumber": "140-144", "addr:postcode": "SW3 4NX", "addr:street": "King's Road", "brand": "Brandy Melville", "brand:wikidata": "Q25387414", "clothes": "women", "name": "Brandy Melville", "shop": "clothes", "website": "https://locations.brandymelville.com/", "wheelchair": "yes"}}, {"type": "node", "id": 450252620, "lat": 51.4891317, "lon": -0.1649095, "tags": {"addr:housenumber": "146", "addr:street": "King's Road", "brand": "O2", "brand:wikidata": "Q1759255", "brand:wikipedia": "en:Telef\u00f3nica Europe", "name": "O2", "phone": "+44 20 7581 6279", "shop": "mobile_phone", "website": "https://stores.o2.co.uk/o2-store-london-kings-road", "wheelchair": "limited"}}, {"type": "node", "id": 450252626, "lat": 51.4889044, "lon": -0.1656419, "tags": {"addr:housenumber": "158", "addr:street": "King's Road", "brand": "Waterstones", "brand:wikidata": "Q151779", "brand:wikipedia": "en:Waterstones", "check_date:opening_hours": "2025-01-03", "name": "Waterstones", "opening_hours": "Mo-Sa 09:00-20:00; Su 11:30-17:30", "phone": "+44 20 7351 2023", "shop": "books", "website": "https://www.waterstones.com/bookshops/king-s-road", "wheelchair": "no"}}, {"type": "node", "id": 450252629, "lat": 51.4886994, "lon": -0.1660355, "tags": {"addr:housenumber": "170", "addr:street": "King's Road", "brand": "Jimmy Fairly", "brand:wikidata": "Q104825419", "check_date": "2024-11-17", "name": "Jimmy Fairly", "opening_hours": "Mo-Sa 10:00-19:00, Su 11:00-18:00", "payment:apple_pay": "yes", "payment:cash": "yes", "payment:contactless": "yes", "payment:credit_cards": "yes", "payment:debit_cards": "yes", "payment:google_pay": "yes", "shop": "optician", "website": "https://jimmyfairly.co.uk/", "wheelchair": "limited"}}, {"type": "node", "id": 450252631, "lat": 51.4886433, "lon": -0.1662048, "tags": {"addr:housenumber": "176", "addr:street": "King's Road", "check_date": "2024-02-03", "name": "Chelsea Eye Centre", "phone": "+44 20 7351 3847", "shop": "optician", "website": "https://chelseaeyecentre.co.uk/", "wheelchair": "limited"}}, {"type": "node", "id": 450252632, "lat": 51.4886592, "lon": -0.1661569, "tags": {"addr:housenumber": "174", "addr:street": "King's Road", "designation": "Shoe shop", "name": "Blue Velvet", "opening_hours": "Mo-Sa 10:00-18:30; Su 11:00-18:00", "phone": "+44 20 7376 7442", "product": "italian shoes", "shop": "shoes", "website": "https://www.bluevelvetshoes.com/", "wheelchair": "limited"}}, {"type": "node", "id": 450252639, "lat": 51.4883901, "lon": -0.166836, "tags": {"addr:housenumber": "188", "addr:street": "King's Road", "old_name": "Comptoir Des Cotonniers", "shop": "jewelry", "wheelchair": "yes"}}, {"type": "node", "id": 452168084, "lat": 51.5151994, "lon": -0.1622861, "tags": {"addr:city": "London", "addr:housenumber": "36-37", "addr:postcode": "W1H 5QF", "addr:street": "Upper Berkeley Street", "cuisine": "lebanese", "fhrs:confidence_management": "0", "fhrs:hygiene": "5", "fhrs:id": "412133", "fhrs:local_authority_id": "00674/0036/0/000", "fhrs:rating": "5", "fhrs:structural": "5", "name": "Green Valley", "note": "Lebanese mini-mart, greengrocer and takeaway.", "shop": "supermarket", "source:postcode": "FSA Food Hygiene Ratings Database", "wheelchair": "yes"}}, {"type": "node", "id": 452215456, "lat": 51.5087773, "lon": -0.14128}, {"type": "node", "id": 452216986, "lat": 51.5146215, "lon": -0.1425131}, {"type": "node", "id": 452228363, "lat": 51.5140403, "lon": -0.1467785}, {"type": "node", "id": 452234984, "lat": 51.514903, "lon": -0.1440022}, {"type": "node", "id": 452412983, "lat": 51.5081866, "lon": -0.1538195, "tags": {"addr:street": "Park Lane", "brand": "BMW", "brand:wikidata": "Q26678", "name": "BMW Park Lane", "shop": "car", "website": "https://www.bmwparklane.com/", "wheelchair": "limited"}}, {"type": "node", "id": 452414071, "lat": 51.5087704, "lon": -0.1513207}, {"type": "node", "id": 452414072, "lat": 51.5084831, "lon": -0.1511883}, {"type": "node", "id": 452414073, "lat": 51.5085703, "lon": -0.1507164}, {"type": "node", "id": 452414074, "lat": 51.5088688, "lon": -0.150861}, {"type": "node", "id": 452414204, "lat": 51.5094374, "lon": -0.1510459}, {"type": "node", "id": 452414205, "lat": 51.508827, "lon": -0.1507637}, {"type": "node", "id": 452417475, "lat": 51.5099923, "lon": -0.1521774, "tags": {"brand": "Majestic", "brand:wikidata": "Q6737725", "brand:wikipedia": "en:Majestic Wine", "check_date": "2009-08-12", "name": "Majestic", "shop": "alcohol"}}, {"type": "node", "id": 452419081, "lat": 51.5128607, "lon": -0.1449114}, {"type": "node", "id": 452419082, "lat": 51.5130133, "lon": -0.1443752}, {"type": "node", "id": 452445964, "lat": 51.526426, "lon": -0.1085591, "tags": {"addr:city": "London", "addr:housenumber": "1-7", "addr:postcode": "EC1R 4SA", "addr:street": "Tysoe Street", "brand": "Co-op Food", "brand:wikidata": "Q3277439", "brand:wikipedia": "en:Co-op Food", "check_date": "2025-07-21", "name": "Co-op Food", "opening_hours": "07:00-23:00", "operator": "The Co-operative Group", "operator:wikidata": "Q117202", "phone": "+44 20 7713 8967", "shop": "convenience", "website": "https://www.coop.co.uk/store-finder/EC1R-4SA/1-7-tysoe-street"}}, {"type": "node", "id": 452590042, "lat": 51.5112787, "lon": -0.1432695}, {"type": "node", "id": 454157967, "lat": 51.5128209, "lon": -0.1408726}, {"type": "node", "id": 454157968, "lat": 51.512904, "lon": -0.1406757}, {"type": "node", "id": 454157972, "lat": 51.5125021, "lon": -0.1405045}, {"type": "node", "id": 454360092, "lat": 51.5089331, "lon": -0.1419013}, {"type": "node", "id": 454360093, "lat": 51.5093445, "lon": -0.142329}, {"type": "node", "id": 454361543, "lat": 51.5126921, "lon": -0.1411183, "tags": {"addr:city": "London", "addr:housenumber": "61", "addr:postcode": "W1S 2GB", "addr:street": "Conduit Street", "name": "Workplace Gallery", "phone": "+44 20 7434 1985", "shop": "art", "website": "https://www.workplacegallery.co.uk/"}}, {"type": "node", "id": 454361547, "lat": 51.5127401, "lon": -0.1410628, "tags": {"addr:city": "London", "addr:housenumber": "62", "addr:postcode": "W1S 2GB", "addr:street": "Conduit Street", "name": "Four", "phone": "+44 20 7297 9600", "shop": "hairdresser", "website": "https://fourlondon.com/welcome/"}}, {"type": "node", "id": 454381854, "lat": 51.5112888, "lon": -0.1393878}, {"type": "node", "id": 456213872, "lat": 51.5112791, "lon": -0.1392242}, {"type": "node", "id": 456213882, "lat": 51.5112296, "lon": -0.1391772}, {"type": "node", "id": 456213890, "lat": 51.5111863, "lon": -0.1392987}, {"type": "node", "id": 456235638, "lat": 51.5120204, "lon": -0.1419695, "tags": {"addr:city": "London", "addr:housenumber": "48", "addr:postcode": "W1S 2YR", "addr:street": "Conduit Street", "name": "Crombie", "shop": "clothes", "website": "https://www.crombie.co.uk/"}}, {"type": "node", "id": 456235641, "lat": 51.5119743, "lon": -0.1420337, "tags": {"addr:city": "London", "addr:housenumber": "47", "addr:postcode": "W1S 2YP", "addr:street": "Conduit Street", "name": "Lalique", "shop": "ornament", "website": "https://www.lalique.com/en"}}, {"type": "node", "id": 456235645, "lat": 51.5119322, "lon": -0.1420884, "tags": {"addr:city": "London", "addr:housenumber": "46", "addr:postcode": "W1S 2YW", "addr:street": "Conduit Street", "name": "Giuseppe Zanotti", "phone": "+44 20 7734 8827", "shop": "shoes", "website": "https://www.giuseppezanotti.com/wo/", "wheelchair": "no"}}, {"type": "node", "id": 456245551, "lat": 51.5117829, "lon": -0.1422747, "tags": {"addr:city": "London", "addr:housenumber": "43", "addr:postcode": "W1S 2YJ", "addr:street": "Conduit Street", "name": "Berluti", "shop": "shoes"}}, {"type": "node", "id": 456277366, "lat": 51.5097499, "lon": -0.1412403, "tags": {"addr:city": "London", "addr:housenumber": "1", "addr:postcode": "W1S 3LU", "addr:street": "New Bond Street", "name": "Ralph Lauren", "phone": "+44 20 7535 4600", "shop": "clothes", "website": "https://www.ralphlauren.co.uk/home/index.jsp", "wheelchair": "yes"}}, {"type": "node", "id": 456277386, "lat": 51.5106187, "lon": -0.142357}, {"type": "node", "id": 456277401, "lat": 51.5106614, "lon": -0.1421975, "tags": {"addr:city": "London", "addr:housenumber": "15A", "addr:postcode": "W1S 4JZ", "addr:street": "Clifford Street", "name": "Maas Gallery", "phone": "+44 20 7734 2302", "shop": "art", "website": "https://www.maasgallery.co.uk/"}}, {"type": "node", "id": 456277417, "lat": 51.5107119, "lon": -0.1420732, "tags": {"addr:city": "London", "addr:housenumber": "15C", "addr:postcode": "W1S 4JZ", "addr:street": "Clifford Street", "name": "Chopard", "phone": "+44 20 7287 8710", "shop": "watches", "website": "https://www.chopard.com/"}}, {"type": "node", "id": 456277426, "lat": 51.5107355, "lon": -0.142014, "tags": {"addr:city": "London", "addr:housenumber": "15D", "addr:postcode": "W1S 4JZ", "addr:street": "Clifford Street", "name": "Sam Fogg", "phone": "+44 20 7534 2100", "shop": "art", "website": "https://www.samfogg.com/"}}, {"type": "node", "id": 456278623, "lat": 51.5109222, "lon": -0.1415133, "tags": {"addr:city": "London", "addr:housenumber": "17", "addr:postcode": "W1S 3RQ", "addr:street": "Clifford Street", "name": "Anderson & Sheppard Haberdashery", "shop": "furnishing", "website": "http://www.Anderson-Sheppard.co.uk"}}, {"type": "node", "id": 456281123, "lat": 51.5110585, "lon": -0.141102, "tags": {"addr:city": "London", "addr:housenumber": "19", "addr:postcode": "W1S 3RH", "addr:street": "Clifford Street", "name": "Richard James Bespoke", "shop": "tailor"}}, {"type": "node", "id": 456290551, "lat": 51.5099329, "lon": -0.1417397, "tags": {"addr:city": "London", "addr:housenumber": "6-8", "addr:postcode": "W1S 3SN", "addr:street": "New Bond Street", "name": "Graff", "shop": "jewelry", "website": "https://www.graffdiamonds.com/"}}, {"type": "node", "id": 456290559, "lat": 51.5100309, "lon": -0.1418887, "tags": {"addr:city": "London", "addr:housenumber": "9", "addr:postcode": "W1S 3SW", "addr:street": "New Bond Street", "name": "Van Cleef and Arpel", "phone": "+44 20 7493 0400", "shop": "jewelry", "website": "https://www.vancleefarpels.com/eu/en.html"}}, {"type": "node", "id": 456290579, "lat": 51.5100924, "lon": -0.1419805, "tags": {"addr:city": "London", "addr:housenumber": "10", "addr:postcode": "W1S 3SP", "addr:street": "New Bond Street", "name": "Breguet", "shop": "watches"}}, {"type": "node", "id": 456290606, "lat": 51.5101468, "lon": -0.1420625, "tags": {"addr:city": "London", "addr:housenumber": "11", "addr:postcode": "W1S 3SR", "addr:street": "New Bond Street", "name": "Blancpain", "phone": "+44 20 7529 0910", "shop": "watches", "website": "http://www.blancpain.com"}}, {"type": "node", "id": 456290657, "lat": 51.5103921, "lon": -0.1423397, "tags": {"addr:city": "London", "addr:housenumber": "15B", "addr:postcode": "W1S 3ST", "addr:street": "New Bond Street", "name": "De Grisogono", "phone": "+44 20 7499 2225", "shop": "jewelry", "website": "https://degrisogono.com/", "wheelchair": "limited"}}, {"type": "node", "id": 456717383, "lat": 51.510133, "lon": -0.1411271, "tags": {"addr:city": "London", "addr:housenumber": "21", "addr:postcode": "W1S 3LZ", "addr:street": "Cork Street", "level": "1", "name": "The Mayor Gallery", "shop": "art", "wikidata": "Q22312914"}}, {"type": "node", "id": 456717385, "lat": 51.5100839, "lon": -0.1410766, "tags": {"addr:city": "London", "addr:housenumber": "21", "addr:postcode": "W1S 3LZ", "addr:street": "Cork Street", "name": "Flowers Central", "phone": "+44 20 7439 7766", "shop": "art", "website": "https://www.flowersgalleries.com/"}}, {"type": "node", "id": 456717386, "lat": 51.510009, "lon": -0.1410003, "tags": {"addr:city": "London", "addr:housenumber": "19,20", "addr:postcode": "W1S 3LP", "addr:street": "Cork Street", "level": "0", "name": "Browse & Darby", "shop": "art", "website": "https://browseanddarby.co.uk/"}}, {"type": "node", "id": 456717387, "lat": 51.5100921, "lon": -0.1414135, "tags": {"addr:city": "London", "addr:housenumber": "11-12", "addr:postcode": "W1S 3LT", "addr:street": "Cork Street", "name": "Waddington Custot Galleries", "shop": "art", "website": "https://www.waddingtoncustot.com/"}}, {"type": "node", "id": 462025219, "lat": 51.5138565, "lon": -0.1513445, "tags": {"addr:city": "London", "addr:housenumber": "56", "addr:postcode": "W1K 6JA", "addr:street": "Duke Street", "brand": "Flight Centre", "brand:wikidata": "Q5459202", "brand:wikipedia": "en:Flight Centre", "disused": "yes", "name": "Flight Centre", "shop": "travel_agency"}}, {"type": "node", "id": 462025228, "lat": 51.5141232, "lon": -0.1508143}, {"type": "node", "id": 462025232, "lat": 51.5130283, "lon": -0.1509526, "tags": {"brand": "William Hill", "brand:wikidata": "Q4053147", "brand:wikipedia": "en:William Hill (bookmaker)", "name": "William Hill", "shop": "bookmaker"}}, {"type": "node", "id": 462025235, "lat": 51.5129948, "lon": -0.1506135, "tags": {"addr:housenumber": "83", "addr:street": "Duke Street", "name": "Buckingham Dry Cleaners", "shop": "laundry", "website": "https://www.buckinghamdrycleaners.com/", "wheelchair": "no"}}, {"type": "node", "id": 462025236, "lat": 51.5128103, "lon": -0.1505373, "tags": {"name": "West One Food Fayre", "shop": "convenience", "wheelchair": "yes"}}, {"type": "node", "id": 462025256, "lat": 51.510523, "lon": -0.1520888, "tags": {"addr:housenumber": "48", "addr:street": "South Audley Street", "name": "Jo Hansford", "shop": "hairdresser"}}, {"type": "node", "id": 462025258, "lat": 51.5103259, "lon": -0.1519947, "tags": {"addr:housenumber": "45-46", "addr:street": "South Audley Street", "name": "West One Bathrooms", "shop": "bathrooms", "website": "https://westonebathrooms.com/"}}, {"type": "node", "id": 462025260, "lat": 51.5101482, "lon": -0.1519061, "tags": {"addr:housenumber": "43", "name": "Frette", "shop": "bed", "website": "https://www.frette.com/"}}, {"type": "node", "id": 462025261, "lat": 51.5098879, "lon": -0.1517723, "tags": {"addr:housenumber": "39", "name": "Mayfair Gallery", "shop": "art", "website": "https://www.mayfairgallery.com/"}}, {"type": "node", "id": 462025262, "lat": 51.5098572, "lon": -0.1521104, "tags": {"addr:housenumber": "54", "addr:street": "South Audley Street", "name": "Jeeves", "shop": "dry_cleaning"}}, {"type": "node", "id": 464790906, "lat": 51.5151051, "lon": -0.1417552}, {"type": "node", "id": 464790908, "lat": 51.5152255, "lon": -0.1416226}, {"type": "node", "id": 464790936, "lat": 51.516945, "lon": -0.1308016}, {"type": "node", "id": 464790940, "lat": 51.5164593, "lon": -0.1310147}, {"type": "node", "id": 464800447, "lat": 51.5168709, "lon": -0.1315737}, {"type": "node", "id": 464800449, "lat": 51.5185396, "lon": -0.1323629}, {"type": "node", "id": 464800450, "lat": 51.5182702, "lon": -0.132841}, {"type": "node", "id": 464800455, "lat": 51.5186528, "lon": -0.1324767}, {"type": "node", "id": 464800464, "lat": 51.5180425, "lon": -0.1311477}, {"type": "node", "id": 466926204, "lat": 51.5115708, "lon": -0.1356474, "tags": {"addr:housenumber": "48-50", "addr:street": "Brewer Street", "brand": "Champion", "brand:wikidata": "Q2948688", "check_date": "2024-09-07", "clothes": "sports", "name": "Champion", "shop": "clothes", "website": "https://www.championstore.com/en/champion"}}, {"type": "node", "id": 469876234, "lat": 51.4927098, "lon": -0.1699546, "tags": {"addr:housenumber": "115", "addr:street": "Fulham Road", "check_date": "2024-03-31", "name": "H\u00e4stens", "phone": "+44 20 7225 0974", "shop": "furniture", "website": "https://www.hastens.com/en/store/uk/london/fulhamroad", "wikidata": "Q3917809", "wikipedia": "en:H\u00e4stens"}}, {"type": "node", "id": 469876238, "lat": 51.492834, "lon": -0.1697349, "tags": {"addr:city": "London", "addr:housenumber": "105-109", "addr:postcode": "SW3 6RL", "addr:street": "Fulham Road", "brand": "Polo Ralph Lauren", "brand:wikidata": "Q1641437", "brand:wikipedia": "en:Ralph Lauren Corporation", "name": "Polo Ralph Lauren", "phone": "+44 20 7590 7990", "shop": "clothes", "website": "https://www.ralphlauren.co.uk/"}}, {"type": "node", "id": 469876241, "lat": 51.4927629, "lon": -0.1698524, "tags": {"addr:housenumber": "111", "addr:street": "Fulham Road", "check_date": "2024-03-31", "name": "Margaret Howell", "opening_hours": "Mo-Sa 10:00-18:00; We 10:00-19:00; Su 12:00-17:00", "phone": "+44 20 7591 2255", "shop": "clothes", "website": "https://www.margarethowell.co.uk/", "wikidata": "Q6759538", "wikipedia": "en:Margaret Howell"}}, {"type": "node", "id": 469876268, "lat": 51.4933725, "lon": -0.1682254, "tags": {"addr:city": "London", "addr:housenumber": "84", "addr:postcode": "SW3 3DZ", "addr:street": "Sloane Avenue", "check_date": "2025-01-09", "check_date:opening_hours": "2025-01-09", "level": "0", "name": "Orlebar Brown", "opening_hours": "Mo-Sa 10:00-18:00; Su 11:00-17:00", "payment:cash": "yes", "payment:credit_cards": "yes", "payment:debit_cards": "yes", "phone": "+44 20 3417 6390", "shop": "clothes", "website": "https://www.orlebarbrown.com/"}}, {"type": "node", "id": 470286559, "lat": 51.5250738, "lon": -0.0709649, "tags": {"addr:city": "London", "addr:housenumber": "138", "addr:postcode": "E2 6DG", "addr:street": "Bethnal Green Road", "name": "Ufundi", "shop": "gift"}}, {"type": "node", "id": 470352810, "lat": 51.4906794, "lon": -0.1003589, "tags": {"addr:city": "London", "addr:housenumber": "56a", "addr:postcode": "SE17 3AE", "addr:street": "Crampton Street", "name": "56a Infoshop", "opening_hours": "Sa 14:00-18:00", "shop": "books", "website": "https://56a.org.uk/"}}, {"type": "node", "id": 471260319, "lat": 51.5189873, "lon": -0.0768774}, {"type": "node", "id": 471260320, "lat": 51.5189365, "lon": -0.0768875}, {"type": "node", "id": 471260321, "lat": 51.5189916, "lon": -0.0768058}, {"type": "node", "id": 471260322, "lat": 51.5189329, "lon": -0.076824}, {"type": "node", "id": 471260325, "lat": 51.5189955, "lon": -0.0766996}, {"type": "node", "id": 471260326, "lat": 51.5189532, "lon": -0.0767028}, {"type": "node", "id": 471488483, "lat": 51.5122296, "lon": -0.0824945, "tags": {"craft": "shoemaker;key_cutter", "name": "City Slickers", "shop": "dry_cleaning", "wheelchair": "limited"}}, {"type": "node", "id": 471488491, "lat": 51.511819, "lon": -0.0820322, "tags": {"addr:city": "London", "addr:housename": "Fountain House", "addr:housenumber": "130", "addr:postcode": "EC3M 5DJ", "addr:street": "Fenchurch Street", "brand": "Coral", "brand:wikidata": "Q54621344", "brand:wikipedia": "en:Coral (bookmaker)", "fhrs:id": "295138", "name": "Coral", "shop": "bookmaker"}}, {"type": "node", "id": 471488493, "lat": 51.511692, "lon": -0.0822646, "tags": {"addr:city": "London", "addr:housenumber": "138-140", "addr:postcode": "EC3M 6BL", "addr:street": "Fenchurch Street", "branch": "London Fenchurch Street", "old_name": "Boots", "shop": "vacant", "wheelchair": "no"}}, {"type": "node", "id": 471488494, "lat": 51.5117523, "lon": -0.0818305, "tags": {"addr:city": "London", "addr:country": "GB", "addr:housenumber": "135", "addr:postcode": "EC3M 5DJ", "addr:street": "Fenchurch Street", "name": "Traveler", "opening_hours": "Mo-Fr 08:30-18:30; Sa-Su off", "phone": "+44 20 7929 5675", "shop": "bag", "website": "http://www.spacenk.co.uk"}}, {"type": "node", "id": 471488495, "lat": 51.5117973, "lon": -0.0816305, "tags": {"name": "Leonard Jay", "note": "Approximate location", "shop": "clothes"}}, {"type": "node", "id": 471488496, "lat": 51.5118447, "lon": -0.0814374, "tags": {"old_name": "Mappin & Webb", "shop": "vacant"}}, {"type": "node", "id": 472663711, "lat": 51.5133609, "lon": -0.1559445}, {"type": "node", "id": 472754033, "lat": 51.5147843, "lon": -0.0780473, "tags": {"brand": "William Hill", "brand:wikidata": "Q4053147", "brand:wikipedia": "en:William Hill (bookmaker)", "name": "William Hill", "shop": "bookmaker"}}, {"type": "node", "id": 473484584, "lat": 51.5007584, "lon": -0.0890865, "tags": {"shop": "laundry", "wheelchair": "limited"}}, {"type": "node", "id": 474360214, "lat": 51.4954702, "lon": -0.0749684, "tags": {"fixme": "Check location.", "name": "Bermondsey One-Stop Shop", "shop": "yes"}}, {"type": "node", "id": 475386420, "lat": 51.5154542, "lon": -0.0717881}, {"type": "node", "id": 475868738, "lat": 51.5171622, "lon": -0.1047894, "tags": {"addr:city": "London", "addr:housenumber": "41A", "addr:postcode": "EC4A 4AN", "addr:street": "Farringdon Street", "addr:unit": "Retail Unit", "amenity": "bar", "fhrs:id": "782770", "image": "https://archive.org/details/city-of-london-2019-05-06/DSCN0168.JPG", "layer": "-1", "name": "Winemakers Club", "note": "Under Holborn Viaduct", "opening_hours": "Tu-Fr 11:00-23:00, Mo 11:00-17:00", "shop": "alcohol", "website": "http://thewinemakersclub.co.uk/"}}, {"type": "node", "id": 477237187, "lat": 51.514922, "lon": -0.1541068}, {"type": "node", "id": 477237188, "lat": 51.5140212, "lon": -0.1537071}, {"type": "node", "id": 477237190, "lat": 51.5142691, "lon": -0.1515436}, {"type": "node", "id": 477237191, "lat": 51.5153537, "lon": -0.1520525}, {"type": "node", "id": 479151681, "lat": 51.5139856, "lon": -0.1004245, "tags": {"addr:city": "London", "addr:housename": "Juxon House", "addr:housenumber": "100", "addr:postcode": "EC4M 8BU", "addr:street": "Saint Paul's Church Yard", "fhrs:id": "293627", "shop": "vacant", "wheelchair": "yes"}}, {"type": "node", "id": 482835019, "lat": 51.4888345, "lon": -0.0963298, "tags": {"addr:city": "London", "addr:housenumber": "224-226", "addr:postcode": "SE17 1JE", "addr:street": "Walworth Road", "atm": "yes", "brand": "Tesco Express", "brand:wikidata": "Q98456772", "check_date": "2024-08-05", "contact:website": "https://www.tesco.com/store-locator/london/224-226-walworth-rd", "fhrs:id": "363037", "name": "Tesco Express", "shop": "convenience", "source:addr": "FHRS Open Data", "wheelchair": "yes"}}, {"type": "node", "id": 482835063, "lat": 51.4839741, "lon": -0.093776, "tags": {"addr:housenumber": "23-25", "addr:street": "Camberwell Road", "brand": "Costcutter", "brand:wikidata": "Q5175072", "brand:wikipedia": "en:Costcutter", "check_date": "2025-08-20", "name": "Costcutter", "shop": "convenience"}}, {"type": "node", "id": 488443291, "lat": 51.5141942, "lon": -0.0997143, "tags": {"addr:city": "London", "addr:housename": "Juxon House", "addr:housenumber": "100", "addr:postcode": "EC4M 8BU", "addr:street": "Saint Paul's Church Yard", "addr:unit": "Unit 4", "brand": "Go Outdoors", "brand:wikidata": "Q75293941", "contact:phone": "+44 203 675 8797", "name": "Go Outdoors Express", "opening_hours": "Mo-Fr 09:00-19:00; Sa 09:30-18:00; Su 12:00-18:00", "shop": "outdoor", "website": "https://www.gooutdoors.co.uk/stores/go-express-st-pauls"}}, {"type": "node", "id": 490173915, "lat": 51.5149566, "lon": -0.1272656}, {"type": "node", "id": 490173920, "lat": 51.5154839, "lon": -0.1270481}, {"type": "node", "id": 490173923, "lat": 51.5155147, "lon": -0.1273496}, {"type": "node", "id": 490256492, "lat": 51.5127143, "lon": -0.1262731}, {"type": "node", "id": 490256498, "lat": 51.5126113, "lon": -0.125389}, {"type": "node", "id": 490256501, "lat": 51.5128792, "lon": -0.1248774}, {"type": "node", "id": 490256502, "lat": 51.512925, "lon": -0.1248244}, {"type": "node", "id": 490256504, "lat": 51.513837, "lon": -0.1249989}, {"type": "node", "id": 490256508, "lat": 51.5144173, "lon": -0.1260554}, {"type": "node", "id": 490256509, "lat": 51.51456, "lon": -0.1262492}, {"type": "node", "id": 490256545, "lat": 51.5149099, "lon": -0.124971}, {"type": "node", "id": 490256591, "lat": 51.5148555, "lon": -0.1225236}, {"type": "node", "id": 492935747, "lat": 51.5158445, "lon": -0.1237505}, {"type": "node", "id": 492935748, "lat": 51.515521, "lon": -0.1233452}, {"type": "node", "id": 493350750, "lat": 51.5200679, "lon": -0.1308471}, {"type": "node", "id": 494923289, "lat": 51.5197029, "lon": -0.131252}, {"type": "node", "id": 494923294, "lat": 51.5197925, "lon": -0.1310455}, {"type": "node", "id": 494923300, "lat": 51.5198885, "lon": -0.1308246}, {"type": "node", "id": 494923305, "lat": 51.51997, "lon": -0.1306368}, {"type": "node", "id": 494923345, "lat": 51.5188105, "lon": -0.1323209}, {"type": "node", "id": 494928750, "lat": 51.5197026, "lon": -0.1332031}, {"type": "node", "id": 494928754, "lat": 51.5199238, "lon": -0.1334319}, {"type": "node", "id": 494928761, "lat": 51.5203023, "lon": -0.1338404}, {"type": "node", "id": 494928763, "lat": 51.5204812, "lon": -0.1333937}, {"type": "node", "id": 495535876, "lat": 51.52255, "lon": -0.1316385}, {"type": "node", "id": 495535985, "lat": 51.5212173, "lon": -0.1347593}, {"type": "node", "id": 495535987, "lat": 51.5212765, "lon": -0.1345947}, {"type": "node", "id": 495535990, "lat": 51.5209687, "lon": -0.1342825}, {"type": "node", "id": 495535992, "lat": 51.520916, "lon": -0.1344322}, {"type": "node", "id": 495535998, "lat": 51.5211063, "lon": -0.1344389}, {"type": "node", "id": 495536027, "lat": 51.5213949, "lon": -0.1347017}, {"type": "node", "id": 495536029, "lat": 51.5214985, "lon": -0.134836}, {"type": "node", "id": 495536031, "lat": 51.5214473, "lon": -0.1349702}, {"type": "node", "id": 495536040, "lat": 51.5211989, "lon": -0.134526}, {"type": "node", "id": 495536059, "lat": 51.5209398, "lon": -0.1341852}, {"type": "node", "id": 495536061, "lat": 51.5208507, "lon": -0.1344167}, {"type": "node", "id": 496471917, "lat": 51.5194598, "lon": -0.1420542}, {"type": "node", "id": 496471918, "lat": 51.519416, "lon": -0.1423026}, {"type": "node", "id": 496471921, "lat": 51.5194697, "lon": -0.1419982}, {"type": "node", "id": 496471925, "lat": 51.519563, "lon": -0.1423695}, {"type": "node", "id": 496471933, "lat": 51.5196167, "lon": -0.1420652}, {"type": "node", "id": 496471939, "lat": 51.5201622, "lon": -0.1421005}, {"type": "node", "id": 496674486, "lat": 51.5186663, "lon": -0.1407443}, {"type": "node", "id": 496674487, "lat": 51.5186391, "lon": -0.1409006}, {"type": "node", "id": 496674490, "lat": 51.5185919, "lon": -0.1408794}, {"type": "node", "id": 496674497, "lat": 51.5185563, "lon": -0.1410839}, {"type": "node", "id": 496674498, "lat": 51.5184818, "lon": -0.1410511}, {"type": "node", "id": 496695798, "lat": 51.5181277, "lon": -0.1404822}, {"type": "node", "id": 496695817, "lat": 51.5175607, "lon": -0.1406324}, {"type": "node", "id": 496695825, "lat": 51.5174869, "lon": -0.1411698}, {"type": "node", "id": 496695832, "lat": 51.5177149, "lon": -0.1406243}, {"type": "node", "id": 496702578, "lat": 51.518373, "lon": -0.1403883}, {"type": "node", "id": 496702579, "lat": 51.5184068, "lon": -0.1402067}, {"type": "node", "id": 496827809, "lat": 51.5238752, "lon": -0.1393973}, {"type": "node", "id": 496827810, "lat": 51.5238222, "lon": -0.1395419}, {"type": "node", "id": 496827811, "lat": 51.5240055, "lon": -0.1397243}, {"type": "node", "id": 497149923, "lat": 51.515849, "lon": -0.1356622}, {"type": "node", "id": 497185842, "lat": 51.5215777, "lon": -0.1350857}, {"type": "node", "id": 497233000, "lat": 51.5146926, "lon": -0.1420301}, {"type": "node", "id": 497233012, "lat": 51.5146818, "lon": -0.1422464}, {"type": "node", "id": 497233069, "lat": 51.5132601, "lon": -0.1476251}, {"type": "node", "id": 497233077, "lat": 51.5137201, "lon": -0.1486891}, {"type": "node", "id": 497233085, "lat": 51.5136886, "lon": -0.1487084}, {"type": "node", "id": 497233125, "lat": 51.5111987, "lon": -0.1434484}, {"type": "node", "id": 497233134, "lat": 51.5109815, "lon": -0.1438876},